{"type":"FeatureCollection","name":"Traffic","features":[{"type":"Feature","geometry":{"type":"Point","coordinates":[21.26402,48.97937]},"properties":{"ROUTE_NUMBER":38,"PLANNED_START":"17:35","DIRECTION":"P","BUS_STOP_ORDER_NUM":14,"Current_Stop":"Lesnícka","BUS_STOP_NUM_1":37,"BUS_STOP_SUB_NUM_1":1,"Next_Stop":"Pavla Horova","BUS_STOP_NUM_2":38,"BUS_STOP_SUB_NUM_2":1,"PLANNED_ROAD":510,"REAL_ROAD":20,"DELAY":30,"VEHICLE_NUMBER":722,"Order_In_Json_Id":1,"Type":"MHD","Current_Time":1611680948491,"CHANGE_OF_DELAY":-14,"Street":"Solivarská","isOnStop":false}},{"type":"Feature","geometry":{"type":"Point","coordinates":[21.22562,48.99203]},"properties":{"ROUTE_NUMBER":12,"PLANNED_START":"17:28","DIRECTION":"T","BUS_STOP_ORDER_NUM":17,"Current_Stop":"SOŠ lesnícka","BUS_STOP_NUM_1":182,"BUS_STOP_SUB_NUM_1":0,"Next_Stop":"Kollárova","BUS_STOP_NUM_2":181,"BUS_STOP_SUB_NUM_2":0,"PLANNED_ROAD":407,"REAL_ROAD":260,"DELAY":3,"VEHICLE_NUMBER":392,"Order_In_Json_Id":3,"Type":"MHD","Current_Time":1611680948491,"CHANGE_OF_DELAY":-3,"Street":"Kollárova","isOnStop":false}},{"type":"Feature","geometry":{"type":"Point","coordinates":[21.2433,48.99427]},"properties":{"ROUTE_NUMBER":1,"PLANNED_START":"17:45","DIRECTION":"T","BUS_STOP_ORDER_NUM":8,"Current_Stop":"Divadlo Jonáša Záborského","BUS_STOP_NUM_1":205,"BUS_STOP_SUB_NUM_1":0,"Next_Stop":"Na Hlavnej","BUS_STOP_NUM_2":2,"BUS_STOP_SUB_NUM_2":0,"PLANNED_ROAD":290,"REAL_ROAD":116,"DELAY":56,"VEHICLE_NUMBER":737,"Order_In_Json_Id":7,"Type":"MHD","Current_Time":1611680948491,"CHANGE_OF_DELAY":3,"Street":"Okružná","isOnStop":false}},{"type":"Feature","geometry":{"type":"Point","coordinates":[21.22165,49.0079]},"properties":{"ROUTE_NUMBER":38,"PLANNED_START":"17:28","DIRECTION":"T","BUS_STOP_ORDER_NUM":16,"Current_Stop":"Nám.Kráľ.pokoja","BUS_STOP_NUM_1":189,"BUS_STOP_SUB_NUM_1":0,"Next_Stop":"VUKOV","BUS_STOP_NUM_2":190,"BUS_STOP_SUB_NUM_2":0,"PLANNED_ROAD":438,"REAL_ROAD":140,"DELAY":-251,"VEHICLE_NUMBER":723,"Order_In_Json_Id":5,"Type":"MHD","Current_Time":1611680948491,"CHANGE_OF_DELAY":0,"Street":"Tehelná","isOnStop":false}},{"type":"Feature","geometry":{"type":"Point","coordinates":[21.25036,48.98178]},"properties":{"ROUTE_NUMBER":45,"PLANNED_START":"17:30","DIRECTION":"P","BUS_STOP_ORDER_NUM":16,"Current_Stop":"Železničná stanica","BUS_STOP_NUM_1":35,"BUS_STOP_SUB_NUM_1":1,"Next_Stop":"Škára","BUS_STOP_NUM_2":529,"BUS_STOP_SUB_NUM_2":1,"PLANNED_ROAD":850,"REAL_ROAD":131,"DELAY":-67,"VEHICLE_NUMBER":398,"Order_In_Json_Id":8,"Type":"MHD","Current_Time":1611680948491,"CHANGE_OF_DELAY":-8,"isOnStop":false}},{"type":"Feature","geometry":{"type":"Point","coordinates":[21.22944,48.99551]},"properties":{"ROUTE_NUMBER":15,"PLANNED_START":"17:48","DIRECTION":"P","BUS_STOP_ORDER_NUM":7,"Current_Stop":"Ostrovček","BUS_STOP_NUM_1":183,"BUS_STOP_SUB_NUM_1":1,"Next_Stop":"Nám.mládeže","BUS_STOP_NUM_2":197,"BUS_STOP_SUB_NUM_2":1,"PLANNED_ROAD":240,"REAL_ROAD":220,"DELAY":-48,"VEHICLE_NUMBER":401,"Order_In_Json_Id":10,"Type":"MHD","Current_Time":1611680948491,"CHANGE_OF_DELAY":-5,"Street":"Fučíkova","isOnStop":false}},{"type":"Feature","geometry":{"type":"Point","coordinates":[21.28132,48.9948]},"properties":{"ROUTE_NUMBER":22,"PLANNED_START":"17:30","DIRECTION":"P","BUS_STOP_ORDER_NUM":19,"Current_Stop":"Sekčovská","BUS_STOP_NUM_1":47,"BUS_STOP_SUB_NUM_1":1,"Next_Stop":"Hruny","BUS_STOP_NUM_2":48,"BUS_STOP_SUB_NUM_2":1,"PLANNED_ROAD":405,"REAL_ROAD":186,"DELAY":-61,"VEHICLE_NUMBER":386,"Order_In_Json_Id":12,"Type":"MHD","Current_Time":1611680948491,"CHANGE_OF_DELAY":9,"Street":"Sekčovská","isOnStop":false}},{"type":"Feature","geometry":{"type":"Point","coordinates":[21.23849,49.00546]},"properties":{"ROUTE_NUMBER":2,"PLANNED_START":"17:50","DIRECTION":"P","BUS_STOP_ORDER_NUM":6,"Current_Stop":"Sabinovská","BUS_STOP_NUM_1":126,"BUS_STOP_SUB_NUM_1":1,"Next_Stop":"Trojica","BUS_STOP_NUM_2":1,"BUS_STOP_SUB_NUM_2":1,"PLANNED_ROAD":750,"REAL_ROAD":22,"DELAY":-29,"VEHICLE_NUMBER":740,"Order_In_Json_Id":19,"Type":"MHD","Current_Time":1611680948491,"CHANGE_OF_DELAY":-13,"Street":"Komenského","isOnStop":false}},{"type":"Feature","geometry":{"type":"Point","coordinates":[21.23511,49.00097]},"properties":{"ROUTE_NUMBER":8,"PLANNED_START":"17:35","DIRECTION":"T","BUS_STOP_ORDER_NUM":12,"Current_Stop":"Trojica","BUS_STOP_NUM_1":1,"BUS_STOP_SUB_NUM_1":0,"Next_Stop":"Poliklinika","BUS_STOP_NUM_2":156,"BUS_STOP_SUB_NUM_2":0,"PLANNED_ROAD":640,"REAL_ROAD":477,"DELAY":-62,"VEHICLE_NUMBER":724,"Order_In_Json_Id":25,"Type":"MHD","Current_Time":1611680948491,"CHANGE_OF_DELAY":-4,"isOnStop":false}},{"type":"Feature","geometry":{"type":"Point","coordinates":[21.27004,48.99856]},"properties":{"ROUTE_NUMBER":32,"PLANNED_START":"17:37","DIRECTION":"P","BUS_STOP_ORDER_NUM":10,"Current_Stop":"Karpatská","BUS_STOP_NUM_1":41,"BUS_STOP_SUB_NUM_1":1,"Next_Stop":"Sibírska","BUS_STOP_NUM_2":36,"BUS_STOP_SUB_NUM_2":1,"PLANNED_ROAD":560,"REAL_ROAD":157,"DELAY":-55,"VEHICLE_NUMBER":345,"Order_In_Json_Id":28,"Type":"MHD","Current_Time":1611680948491,"CHANGE_OF_DELAY":12,"isOnStop":false}},{"type":"Feature","geometry":{"type":"Point","coordinates":[21.27375,49.01978]},"properties":{"ROUTE_NUMBER":28,"PLANNED_START":"17:49","DIRECTION":"P","BUS_STOP_ORDER_NUM":6,"Current_Stop":"Šebastovská","BUS_STOP_NUM_1":93,"BUS_STOP_SUB_NUM_1":1,"Next_Stop":"Šarišské Lúky","BUS_STOP_NUM_2":81,"BUS_STOP_SUB_NUM_2":2,"PLANNED_ROAD":740,"REAL_ROAD":470,"DELAY":-19,"VEHICLE_NUMBER":378,"Order_In_Json_Id":29,"Type":"MHD","Current_Time":1611680948491,"CHANGE_OF_DELAY":9,"isOnStop":false}},{"type":"Feature","geometry":{"type":"Point","coordinates":[21.24073,49.03133]},"properties":{"ROUTE_NUMBER":22,"PLANNED_START":"17:32","DIRECTION":"T","BUS_STOP_ORDER_NUM":19,"Current_Stop":"Jánošíkova","BUS_STOP_NUM_1":146,"BUS_STOP_SUB_NUM_1":0,"Next_Stop":"Šidlovská","BUS_STOP_NUM_2":541,"BUS_STOP_SUB_NUM_2":0,"PLANNED_ROAD":660,"REAL_ROAD":660,"DELAY":85,"VEHICLE_NUMBER":3431,"Order_In_Json_Id":31,"Type":"MHD","Current_Time":1611680948491,"CHANGE_OF_DELAY":-7,"Street":"Severná","isOnStop":false}},{"type":"Feature","geometry":{"type":"Point","coordinates":[21.24464,48.99253]},"properties":{"ROUTE_NUMBER":10,"PLANNED_START":"17:37","DIRECTION":"T","BUS_STOP_ORDER_NUM":13,"Current_Stop":"Čierny most","BUS_STOP_NUM_1":4,"BUS_STOP_SUB_NUM_1":0,"Next_Stop":"Grešova","BUS_STOP_NUM_2":114,"BUS_STOP_SUB_NUM_2":1,"PLANNED_ROAD":500,"REAL_ROAD":359,"DELAY":-73,"VEHICLE_NUMBER":400,"Order_In_Json_Id":32,"Type":"MHD","Current_Time":1611680948491,"CHANGE_OF_DELAY":5,"Street":"Štefánikova","isOnStop":false}},{"type":"Feature","geometry":{"type":"Point","coordinates":[21.24241,48.99536]},"properties":{"ROUTE_NUMBER":1,"PLANNED_START":"17:45","DIRECTION":"T","BUS_STOP_ORDER_NUM":8,"Current_Stop":"Divadlo Jonáša Záborského","BUS_STOP_NUM_1":205,"BUS_STOP_SUB_NUM_1":0,"Next_Stop":"Na Hlavnej","BUS_STOP_NUM_2":2,"BUS_STOP_SUB_NUM_2":0,"PLANNED_ROAD":290,"REAL_ROAD":249,"DELAY":63,"VEHICLE_NUMBER":737,"Order_In_Json_Id":7,"Type":"MHD","Current_Time":1611680963497,"CHANGE_OF_DELAY":7,"Street":"Okružná","isOnStop":false}},{"type":"Feature","geometry":{"type":"Point","coordinates":[21.24722,48.98915]},"properties":{"ROUTE_NUMBER":8,"PLANNED_START":"17:40","DIRECTION":"P","BUS_STOP_ORDER_NUM":12,"Current_Stop":"Čierny most","BUS_STOP_NUM_1":4,"BUS_STOP_SUB_NUM_1":1,"Next_Stop":"Železničná stanica","BUS_STOP_NUM_2":35,"BUS_STOP_SUB_NUM_2":1,"PLANNED_ROAD":790,"REAL_ROAD":86,"DELAY":89,"VEHICLE_NUMBER":727,"Order_In_Json_Id":9,"Type":"MHD","Current_Time":1611680963497,"CHANGE_OF_DELAY":0,"Street":"Škultétyho","isOnStop":false}},{"type":"Feature","geometry":{"type":"Point","coordinates":[21.27141,49.00079]},"properties":{"ROUTE_NUMBER":8,"PLANNED_START":"17:55","DIRECTION":"T","BUS_STOP_ORDER_NUM":1,"Current_Stop":"Sibírska","BUS_STOP_NUM_1":36,"BUS_STOP_SUB_NUM_1":0,"Next_Stop":"Karpatská","BUS_STOP_NUM_2":41,"BUS_STOP_SUB_NUM_2":0,"PLANNED_ROAD":716,"REAL_ROAD":110,"DELAY":-18,"VEHICLE_NUMBER":729,"Order_In_Json_Id":6,"Type":"MHD","Current_Time":1611680963497,"CHANGE_OF_DELAY":3,"Street":"Vihorlatská","isOnStop":false}},{"type":"Feature","geometry":{"type":"Point","coordinates":[21.26396,48.97971]},"properties":{"ROUTE_NUMBER":38,"PLANNED_START":"17:35","DIRECTION":"P","BUS_STOP_ORDER_NUM":14,"Current_Stop":"Lesnícka","BUS_STOP_NUM_1":37,"BUS_STOP_SUB_NUM_1":1,"Next_Stop":"Pavla Horova","BUS_STOP_NUM_2":38,"BUS_STOP_SUB_NUM_2":1,"PLANNED_ROAD":510,"REAL_ROAD":61,"DELAY":29,"VEHICLE_NUMBER":722,"Order_In_Json_Id":1,"Type":"MHD","Current_Time":1611680963497,"CHANGE_OF_DELAY":-1,"Street":"Solivarská","isOnStop":false}},{"type":"Feature","geometry":{"type":"Point","coordinates":[21.33682,49.0242]},"properties":{"ROUTE_NUMBER":13,"PLANNED_START":"17:20","DIRECTION":"P","BUS_STOP_ORDER_NUM":21,"Current_Stop":"Severná - kostol","BUS_STOP_NUM_1":548,"BUS_STOP_SUB_NUM_1":1,"Next_Stop":"Severná","BUS_STOP_NUM_2":147,"BUS_STOP_SUB_NUM_2":0,"PLANNED_ROAD":330,"REAL_ROAD":330,"DELAY":-337,"VEHICLE_NUMBER":395,"Order_In_Json_Id":11,"Type":"MHD","Current_Time":1611680963497,"CHANGE_OF_DELAY":-13,"isOnStop":false}},{"type":"Feature","geometry":{"type":"Point","coordinates":[21.22647,49.02221]},"properties":{"ROUTE_NUMBER":38,"PLANNED_START":"17:55","DIRECTION":"P","BUS_STOP_ORDER_NUM":1,"Current_Stop":"Sídlisko III","BUS_STOP_NUM_1":193,"BUS_STOP_SUB_NUM_1":1,"Next_Stop":"Prostějovská","BUS_STOP_NUM_2":192,"BUS_STOP_SUB_NUM_2":1,"PLANNED_ROAD":415,"REAL_ROAD":232,"DELAY":-17,"VEHICLE_NUMBER":744,"Order_In_Json_Id":15,"Type":"MHD","Current_Time":1611680963497,"CHANGE_OF_DELAY":5,"Street":"Rastislavova","isOnStop":false}},{"type":"Feature","geometry":{"type":"Point","coordinates":[21.23934,49.00158]},"properties":{"ROUTE_NUMBER":7,"PLANNED_START":"17:45","DIRECTION":"T","BUS_STOP_ORDER_NUM":8,"Current_Stop":"Trojica","BUS_STOP_NUM_1":1,"BUS_STOP_SUB_NUM_1":0,"Next_Stop":"Duklianska","BUS_STOP_NUM_2":78,"BUS_STOP_SUB_NUM_2":0,"PLANNED_ROAD":562,"REAL_ROAD":163,"DELAY":-13,"VEHICLE_NUMBER":735,"Order_In_Json_Id":18,"Type":"MHD","Current_Time":1611680963497,"CHANGE_OF_DELAY":-7,"Street":"Čapajevova","isOnStop":false}},{"type":"Feature","geometry":{"type":"Point","coordinates":[21.22068,49.00292]},"properties":{"ROUTE_NUMBER":4,"PLANNED_START":"17:50","DIRECTION":"P","BUS_STOP_ORDER_NUM":6,"Current_Stop":"Volgogradská","BUS_STOP_NUM_1":188,"BUS_STOP_SUB_NUM_1":1,"Next_Stop":"Clementisova","BUS_STOP_NUM_2":187,"BUS_STOP_SUB_NUM_2":1,"PLANNED_ROAD":350,"REAL_ROAD":91,"DELAY":30,"VEHICLE_NUMBER":728,"Order_In_Json_Id":14,"Type":"MHD","Current_Time":1611680963497,"CHANGE_OF_DELAY":-1,"Street":"Levočská","isOnStop":false}},{"type":"Feature","geometry":{"type":"Point","coordinates":[21.25241,48.98263]},"properties":{"ROUTE_NUMBER":4,"PLANNED_START":"17:46","DIRECTION":"T","BUS_STOP_ORDER_NUM":7,"Current_Stop":"Škára","BUS_STOP_NUM_1":529,"BUS_STOP_SUB_NUM_1":0,"Next_Stop":"Železničná stanica","BUS_STOP_NUM_2":35,"BUS_STOP_SUB_NUM_2":0,"PLANNED_ROAD":850,"REAL_ROAD":324,"DELAY":-66,"VEHICLE_NUMBER":746,"Order_In_Json_Id":23,"Type":"MHD","Current_Time":1611680963497,"CHANGE_OF_DELAY":-6,"isOnStop":false}},{"type":"Feature","geometry":{"type":"Point","coordinates":[21.26126,48.97331]},"properties":{"ROUTE_NUMBER":28,"PLANNED_START":"17:50","DIRECTION":"T","BUS_STOP_ORDER_NUM":5,"Current_Stop":"Švábska","BUS_STOP_NUM_1":62,"BUS_STOP_SUB_NUM_1":1,"Next_Stop":"Lomnická","BUS_STOP_NUM_2":61,"BUS_STOP_SUB_NUM_2":1,"PLANNED_ROAD":412,"REAL_ROAD":280,"DELAY":-71,"VEHICLE_NUMBER":357,"Order_In_Json_Id":26,"Type":"MHD","Current_Time":1611680963497,"CHANGE_OF_DELAY":1,"Street":"Švábska","isOnStop":false}},{"type":"Feature","geometry":{"type":"Point","coordinates":[21.23372,49.00085]},"properties":{"ROUTE_NUMBER":8,"PLANNED_START":"17:35","DIRECTION":"T","BUS_STOP_ORDER_NUM":12,"Current_Stop":"Trojica","BUS_STOP_NUM_1":1,"BUS_STOP_SUB_NUM_1":0,"Next_Stop":"Poliklinika","BUS_STOP_NUM_2":156,"BUS_STOP_SUB_NUM_2":0,"PLANNED_ROAD":640,"REAL_ROAD":587,"DELAY":-61,"VEHICLE_NUMBER":724,"Order_In_Json_Id":25,"Type":"MHD","Current_Time":1611680963497,"CHANGE_OF_DELAY":1,"Street":"Záhradná","isOnStop":false}},{"type":"Feature","geometry":{"type":"Point","coordinates":[21.26971,49.00002]},"properties":{"ROUTE_NUMBER":32,"PLANNED_START":"17:37","DIRECTION":"P","BUS_STOP_ORDER_NUM":10,"Current_Stop":"Karpatská","BUS_STOP_NUM_1":41,"BUS_STOP_SUB_NUM_1":1,"Next_Stop":"Sibírska","BUS_STOP_NUM_2":36,"BUS_STOP_SUB_NUM_2":1,"PLANNED_ROAD":560,"REAL_ROAD":315,"DELAY":-38,"VEHICLE_NUMBER":345,"Order_In_Json_Id":28,"Type":"MHD","Current_Time":1611680963497,"CHANGE_OF_DELAY":17,"isOnStop":false}},{"type":"Feature","geometry":{"type":"Point","coordinates":[21.24124,49.03224]},"properties":{"ROUTE_NUMBER":22,"PLANNED_START":"17:32","DIRECTION":"T","BUS_STOP_ORDER_NUM":20,"Current_Stop":"Šidlovská","BUS_STOP_NUM_1":541,"BUS_STOP_SUB_NUM_1":0,"Next_Stop":"Jahodová","BUS_STOP_NUM_2":149,"BUS_STOP_SUB_NUM_2":0,"PLANNED_ROAD":370,"REAL_ROAD":236,"DELAY":101,"VEHICLE_NUMBER":3431,"Order_In_Json_Id":30,"Type":"MHD","Current_Time":1611680963497,"CHANGE_OF_DELAY":16,"isOnStop":false}},{"type":"Feature","geometry":{"type":"Point","coordinates":[21.26465,48.98684]},"properties":{"ROUTE_NUMBER":4,"PLANNED_START":"17:30","DIRECTION":"P","BUS_STOP_ORDER_NUM":16,"Current_Stop":"Pavla Horova","BUS_STOP_NUM_1":38,"BUS_STOP_SUB_NUM_1":1,"Next_Stop":"Martina Benku","BUS_STOP_NUM_2":39,"BUS_STOP_SUB_NUM_2":1,"PLANNED_ROAD":389,"REAL_ROAD":342,"DELAY":-59,"VEHICLE_NUMBER":745,"Order_In_Json_Id":13,"Type":"MHD","Current_Time":1611680963497,"CHANGE_OF_DELAY":1,"isOnStop":false}},{"type":"Feature","geometry":{"type":"Point","coordinates":[21.26334,48.97793]},"properties":{"ROUTE_NUMBER":1,"PLANNED_START":"17:35","DIRECTION":"P","BUS_STOP_ORDER_NUM":13,"Current_Stop":"Škára","BUS_STOP_NUM_1":529,"BUS_STOP_SUB_NUM_1":1,"Next_Stop":"Solivarská","BUS_STOP_NUM_2":53,"BUS_STOP_SUB_NUM_2":1,"PLANNED_ROAD":860,"REAL_ROAD":594,"DELAY":-46,"VEHICLE_NUMBER":736,"Order_In_Json_Id":2,"Type":"MHD","Current_Time":1611680978506,"CHANGE_OF_DELAY":-14,"isOnStop":false}},{"type":"Feature","geometry":{"type":"Point","coordinates":[21.18603,49.0134]},"properties":{"ROUTE_NUMBER":23,"PLANNED_START":"17:35","DIRECTION":"P","BUS_STOP_ORDER_NUM":13,"Current_Stop":"Šľachtiteľská stanica","BUS_STOP_NUM_1":164,"BUS_STOP_SUB_NUM_1":0,"Next_Stop":"Malý Šariš","BUS_STOP_NUM_2":165,"BUS_STOP_SUB_NUM_2":2,"PLANNED_ROAD":271,"REAL_ROAD":113,"DELAY":22,"VEHICLE_NUMBER":352,"Order_In_Json_Id":23,"Type":"MHD","Current_Time":1611680978506,"CHANGE_OF_DELAY":6,"isOnStop":false}},{"type":"Feature","geometry":{"type":"Point","coordinates":[21.23981,48.99913]},"properties":{"ROUTE_NUMBER":36,"PLANNED_START":"17:53","DIRECTION":"P","BUS_STOP_ORDER_NUM":2,"Current_Stop":"Trojica","BUS_STOP_NUM_1":1,"BUS_STOP_SUB_NUM_1":1,"Next_Stop":"Na Hlavnej","BUS_STOP_NUM_2":2,"BUS_STOP_SUB_NUM_2":1,"PLANNED_ROAD":394,"REAL_ROAD":21,"DELAY":-1,"VEHICLE_NUMBER":367,"Order_In_Json_Id":31,"Type":"MHD","Current_Time":1611680978506,"CHANGE_OF_DELAY":-16,"Street":"Šarišská","isOnStop":false}},{"type":"Feature","geometry":{"type":"Point","coordinates":[21.26334,48.97793]},"properties":{"ROUTE_NUMBER":1,"PLANNED_START":"17:35","DIRECTION":"P","BUS_STOP_ORDER_NUM":13,"Current_Stop":"Škára","BUS_STOP_NUM_1":529,"BUS_STOP_SUB_NUM_1":1,"Next_Stop":"Solivarská","BUS_STOP_NUM_2":53,"BUS_STOP_SUB_NUM_2":1,"PLANNED_ROAD":860,"REAL_ROAD":594,"DELAY":-59,"VEHICLE_NUMBER":736,"Order_In_Json_Id":2,"Type":"MHD","Current_Time":1611680993513,"CHANGE_OF_DELAY":-13,"isOnStop":false}},{"type":"Feature","geometry":{"type":"Point","coordinates":[21.25258,48.98258]},"properties":{"ROUTE_NUMBER":45,"PLANNED_START":"17:30","DIRECTION":"P","BUS_STOP_ORDER_NUM":16,"Current_Stop":"Železničná stanica","BUS_STOP_NUM_1":35,"BUS_STOP_SUB_NUM_1":1,"Next_Stop":"Škára","BUS_STOP_NUM_2":529,"BUS_STOP_SUB_NUM_2":1,"PLANNED_ROAD":850,"REAL_ROAD":386,"DELAY":-90,"VEHICLE_NUMBER":398,"Order_In_Json_Id":8,"Type":"MHD","Current_Time":1611680993513,"CHANGE_OF_DELAY":-1,"Street":"Východná","isOnStop":false}},{"type":"Feature","geometry":{"type":"Point","coordinates":[21.24167,48.99623]},"properties":{"ROUTE_NUMBER":1,"PLANNED_START":"17:45","DIRECTION":"T","BUS_STOP_ORDER_NUM":9,"Current_Stop":"Na Hlavnej","BUS_STOP_NUM_1":2,"BUS_STOP_SUB_NUM_1":0,"Next_Stop":"Trojica","BUS_STOP_NUM_2":1,"BUS_STOP_SUB_NUM_2":0,"PLANNED_ROAD":560,"REAL_ROAD":71,"DELAY":54,"VEHICLE_NUMBER":737,"Order_In_Json_Id":7,"Type":"MHD","Current_Time":1611680993513,"CHANGE_OF_DELAY":-15,"Street":"Tkáčska","isOnStop":false}},{"type":"Feature","geometry":{"type":"Point","coordinates":[21.22282,49.01401]},"properties":{"ROUTE_NUMBER":4,"PLANNED_START":"17:26","DIRECTION":"T","BUS_STOP_ORDER_NUM":17,"Current_Stop":"VUKOV","BUS_STOP_NUM_1":190,"BUS_STOP_SUB_NUM_1":0,"Next_Stop":"Centrum","BUS_STOP_NUM_2":191,"BUS_STOP_SUB_NUM_2":0,"PLANNED_ROAD":730,"REAL_ROAD":398,"DELAY":-253,"VEHICLE_NUMBER":731,"Order_In_Json_Id":16,"Type":"MHD","Current_Time":1611680993513,"CHANGE_OF_DELAY":15,"Street":"Mirka Nešpora","isOnStop":false}},{"type":"Feature","geometry":{"type":"Point","coordinates":[21.22443,49.02075]},"properties":{"ROUTE_NUMBER":38,"PLANNED_START":"17:55","DIRECTION":"P","BUS_STOP_ORDER_NUM":1,"Current_Stop":"Sídlisko III","BUS_STOP_NUM_1":193,"BUS_STOP_SUB_NUM_1":1,"Next_Stop":"Prostějovská","BUS_STOP_NUM_2":192,"BUS_STOP_SUB_NUM_2":1,"PLANNED_ROAD":415,"REAL_ROAD":415,"DELAY":-13,"VEHICLE_NUMBER":744,"Order_In_Json_Id":14,"Type":"MHD","Current_Time":1611680993513,"CHANGE_OF_DELAY":0,"Street":"Mirka Nešpora","isOnStop":false}},{"type":"Feature","geometry":{"type":"Point","coordinates":[21.25066,48.98158]},"properties":{"ROUTE_NUMBER":4,"PLANNED_START":"17:46","DIRECTION":"T","BUS_STOP_ORDER_NUM":7,"Current_Stop":"Škára","BUS_STOP_NUM_1":529,"BUS_STOP_SUB_NUM_1":0,"Next_Stop":"Železničná stanica","BUS_STOP_NUM_2":35,"BUS_STOP_SUB_NUM_2":0,"PLANNED_ROAD":850,"REAL_ROAD":502,"DELAY":-70,"VEHICLE_NUMBER":746,"Order_In_Json_Id":22,"Type":"MHD","Current_Time":1611680993513,"CHANGE_OF_DELAY":0,"isOnStop":false}},{"type":"Feature","geometry":{"type":"Point","coordinates":[21.26382,48.97838]},"properties":{"ROUTE_NUMBER":38,"PLANNED_START":"17:48","DIRECTION":"T","BUS_STOP_ORDER_NUM":6,"Current_Stop":"Lesnícka","BUS_STOP_NUM_1":37,"BUS_STOP_SUB_NUM_1":0,"Next_Stop":"Škára","BUS_STOP_NUM_2":529,"BUS_STOP_SUB_NUM_2":0,"PLANNED_ROAD":888,"REAL_ROAD":48,"DELAY":-64,"VEHICLE_NUMBER":725,"Order_In_Json_Id":21,"Type":"MHD","Current_Time":1611680993513,"CHANGE_OF_DELAY":-10,"isOnStop":false}},{"type":"Feature","geometry":{"type":"Point","coordinates":[21.26234,48.97431]},"properties":{"ROUTE_NUMBER":28,"PLANNED_START":"17:50","DIRECTION":"T","BUS_STOP_ORDER_NUM":5,"Current_Stop":"Švábska","BUS_STOP_NUM_1":62,"BUS_STOP_SUB_NUM_1":1,"Next_Stop":"Lomnická","BUS_STOP_NUM_2":61,"BUS_STOP_SUB_NUM_2":1,"PLANNED_ROAD":412,"REAL_ROAD":412,"DELAY":-80,"VEHICLE_NUMBER":357,"Order_In_Json_Id":25,"Type":"MHD","Current_Time":1611680993513,"CHANGE_OF_DELAY":-7,"Street":"Švábska","isOnStop":false}},{"type":"Feature","geometry":{"type":"Point","coordinates":[21.27048,49.00056]},"properties":{"ROUTE_NUMBER":32,"PLANNED_START":"17:37","DIRECTION":"P","BUS_STOP_ORDER_NUM":10,"Current_Stop":"Karpatská","BUS_STOP_NUM_1":41,"BUS_STOP_SUB_NUM_1":1,"Next_Stop":"Sibírska","BUS_STOP_NUM_2":36,"BUS_STOP_SUB_NUM_2":1,"PLANNED_ROAD":560,"REAL_ROAD":417,"DELAY":-45,"VEHICLE_NUMBER":345,"Order_In_Json_Id":27,"Type":"MHD","Current_Time":1611680993513,"CHANGE_OF_DELAY":0,"isOnStop":false}},{"type":"Feature","geometry":{"type":"Point","coordinates":[21.26374,48.97775]},"properties":{"ROUTE_NUMBER":1,"PLANNED_START":"17:35","DIRECTION":"P","BUS_STOP_ORDER_NUM":13,"Current_Stop":"Škára","BUS_STOP_NUM_1":529,"BUS_STOP_SUB_NUM_1":1,"Next_Stop":"Solivarská","BUS_STOP_NUM_2":53,"BUS_STOP_SUB_NUM_2":1,"PLANNED_ROAD":860,"REAL_ROAD":633,"DELAY":-68,"VEHICLE_NUMBER":736,"Order_In_Json_Id":2,"Type":"MHD","Current_Time":1611681008513,"CHANGE_OF_DELAY":-9,"isOnStop":false}},{"type":"Feature","geometry":{"type":"Point","coordinates":[21.22441,48.99263]},"properties":{"ROUTE_NUMBER":12,"PLANNED_START":"17:28","DIRECTION":"T","BUS_STOP_ORDER_NUM":18,"Current_Stop":"Kollárova","BUS_STOP_NUM_1":181,"BUS_STOP_SUB_NUM_1":0,"Next_Stop":"Sázavského","BUS_STOP_NUM_2":180,"BUS_STOP_SUB_NUM_2":0,"PLANNED_ROAD":230,"REAL_ROAD":18,"DELAY":-22,"VEHICLE_NUMBER":392,"Order_In_Json_Id":3,"Type":"MHD","Current_Time":1611681008513,"CHANGE_OF_DELAY":-10,"isOnStop":false}},{"type":"Feature","geometry":{"type":"Point","coordinates":[21.24114,48.99701]},"properties":{"ROUTE_NUMBER":1,"PLANNED_START":"17:45","DIRECTION":"T","BUS_STOP_ORDER_NUM":9,"Current_Stop":"Na Hlavnej","BUS_STOP_NUM_1":2,"BUS_STOP_SUB_NUM_1":0,"Next_Stop":"Trojica","BUS_STOP_NUM_2":1,"BUS_STOP_SUB_NUM_2":0,"PLANNED_ROAD":560,"REAL_ROAD":168,"DELAY":59,"VEHICLE_NUMBER":737,"Order_In_Json_Id":7,"Type":"MHD","Current_Time":1611681008513,"CHANGE_OF_DELAY":5,"Street":"Jarková","isOnStop":false}},{"type":"Feature","geometry":{"type":"Point","coordinates":[21.18958,48.9865]},"properties":{"ROUTE_NUMBER":18,"PLANNED_START":"17:40","DIRECTION":"T","BUS_STOP_ORDER_NUM":10,"Current_Stop":"Kvašná voda","BUS_STOP_NUM_1":168,"BUS_STOP_SUB_NUM_1":0,"Next_Stop":"Zabíjaná","BUS_STOP_NUM_2":169,"BUS_STOP_SUB_NUM_2":0,"PLANNED_ROAD":1681,"REAL_ROAD":632,"DELAY":-67,"VEHICLE_NUMBER":394,"Order_In_Json_Id":4,"Type":"MHD","Current_Time":1611681053529,"CHANGE_OF_DELAY":-2,"isOnStop":false}},{"type":"Feature","geometry":{"type":"Point","coordinates":[21.23953,48.99986]},"properties":{"ROUTE_NUMBER":1,"PLANNED_START":"17:45","DIRECTION":"T","BUS_STOP_ORDER_NUM":9,"Current_Stop":"Na Hlavnej","BUS_STOP_NUM_1":2,"BUS_STOP_SUB_NUM_1":0,"Next_Stop":"Trojica","BUS_STOP_NUM_2":1,"BUS_STOP_SUB_NUM_2":0,"PLANNED_ROAD":560,"REAL_ROAD":504,"DELAY":82,"VEHICLE_NUMBER":737,"Order_In_Json_Id":7,"Type":"MHD","Current_Time":1611681053529,"CHANGE_OF_DELAY":5,"Street":"Suchomlynská","isOnStop":false}},{"type":"Feature","geometry":{"type":"Point","coordinates":[21.22332,49.01718]},"properties":{"ROUTE_NUMBER":38,"PLANNED_START":"17:55","DIRECTION":"P","BUS_STOP_ORDER_NUM":2,"Current_Stop":"Prostějovská","BUS_STOP_NUM_1":192,"BUS_STOP_SUB_NUM_1":1,"Next_Stop":"Centrum","BUS_STOP_NUM_2":191,"BUS_STOP_SUB_NUM_2":1,"PLANNED_ROAD":451,"REAL_ROAD":414,"DELAY":-23,"VEHICLE_NUMBER":744,"Order_In_Json_Id":14,"Type":"MHD","Current_Time":1611681053529,"CHANGE_OF_DELAY":4,"Street":"Mirka Nešpora","isOnStop":false}},{"type":"Feature","geometry":{"type":"Point","coordinates":[21.26571,48.9904]},"properties":{"ROUTE_NUMBER":38,"PLANNED_START":"17:35","DIRECTION":"P","BUS_STOP_ORDER_NUM":16,"Current_Stop":"Martina Benku","BUS_STOP_NUM_1":39,"BUS_STOP_SUB_NUM_1":1,"Next_Stop":"Jurkovičova","BUS_STOP_NUM_2":40,"BUS_STOP_SUB_NUM_2":1,"PLANNED_ROAD":846,"REAL_ROAD":369,"DELAY":-6,"VEHICLE_NUMBER":722,"Order_In_Json_Id":1,"Type":"MHD","Current_Time":1611681158567,"CHANGE_OF_DELAY":-12,"Street":"Arm. gen. Svobodu","isOnStop":false}},{"type":"Feature","geometry":{"type":"Point","coordinates":[21.22045,48.99982]},"properties":{"ROUTE_NUMBER":12,"PLANNED_START":"17:28","DIRECTION":"T","BUS_STOP_ORDER_NUM":21,"Current_Stop":"M.Čulena","BUS_STOP_NUM_1":178,"BUS_STOP_SUB_NUM_1":0,"Next_Stop":"Volgogradská","BUS_STOP_NUM_2":188,"BUS_STOP_SUB_NUM_2":0,"PLANNED_ROAD":559,"REAL_ROAD":45,"DELAY":10,"VEHICLE_NUMBER":392,"Order_In_Json_Id":3,"Type":"MHD","Current_Time":1611681158567,"CHANGE_OF_DELAY":-4,"isOnStop":false}},{"type":"Feature","geometry":{"type":"Point","coordinates":[21.2249,49.02108]},"properties":{"ROUTE_NUMBER":38,"PLANNED_START":"17:28","DIRECTION":"T","BUS_STOP_ORDER_NUM":19,"Current_Stop":"Prostějovská","BUS_STOP_NUM_1":192,"BUS_STOP_SUB_NUM_1":0,"Next_Stop":"Sídlisko III","BUS_STOP_NUM_2":193,"BUS_STOP_SUB_NUM_2":2,"PLANNED_ROAD":422,"REAL_ROAD":25,"DELAY":-234,"VEHICLE_NUMBER":723,"Order_In_Json_Id":5,"Type":"MHD","Current_Time":1611681158567,"CHANGE_OF_DELAY":-11,"Street":"Mirka Nešpora","isOnStop":false}},{"type":"Feature","geometry":{"type":"Point","coordinates":[21.26699,48.99328]},"properties":{"ROUTE_NUMBER":8,"PLANNED_START":"17:55","DIRECTION":"T","BUS_STOP_ORDER_NUM":3,"Current_Stop":"Jurkovičova","BUS_STOP_NUM_1":40,"BUS_STOP_SUB_NUM_1":0,"Next_Stop":"Martina Benku","BUS_STOP_NUM_2":39,"BUS_STOP_SUB_NUM_2":0,"PLANNED_ROAD":803,"REAL_ROAD":80,"DELAY":-40,"VEHICLE_NUMBER":729,"Order_In_Json_Id":6,"Type":"MHD","Current_Time":1611681158567,"CHANGE_OF_DELAY":-6,"isOnStop":false}},{"type":"Feature","geometry":{"type":"Point","coordinates":[21.23951,49.00186]},"properties":{"ROUTE_NUMBER":1,"PLANNED_START":"17:45","DIRECTION":"T","BUS_STOP_ORDER_NUM":10,"Current_Stop":"Trojica","BUS_STOP_NUM_1":1,"BUS_STOP_SUB_NUM_1":0,"Next_Stop":"Duklianska","BUS_STOP_NUM_2":78,"BUS_STOP_SUB_NUM_2":0,"PLANNED_ROAD":562,"REAL_ROAD":183,"DELAY":42,"VEHICLE_NUMBER":737,"Order_In_Json_Id":7,"Type":"MHD","Current_Time":1611681158567,"CHANGE_OF_DELAY":-5,"Street":"Ku Kumštu","isOnStop":false}},{"type":"Feature","geometry":{"type":"Point","coordinates":[21.26333,48.97555]},"properties":{"ROUTE_NUMBER":45,"PLANNED_START":"17:30","DIRECTION":"P","BUS_STOP_ORDER_NUM":17,"Current_Stop":"Škára","BUS_STOP_NUM_1":529,"BUS_STOP_SUB_NUM_1":1,"Next_Stop":"Lomnická","BUS_STOP_NUM_2":61,"BUS_STOP_SUB_NUM_2":0,"PLANNED_ROAD":1097,"REAL_ROAD":903,"DELAY":-34,"VEHICLE_NUMBER":398,"Order_In_Json_Id":8,"Type":"MHD","Current_Time":1611681158567,"CHANGE_OF_DELAY":11,"Street":"Janáčkova","isOnStop":false}},{"type":"Feature","geometry":{"type":"Point","coordinates":[21.25198,48.98194]},"properties":{"ROUTE_NUMBER":8,"PLANNED_START":"17:40","DIRECTION":"P","BUS_STOP_ORDER_NUM":13,"Current_Stop":"Železničná stanica","BUS_STOP_NUM_1":35,"BUS_STOP_SUB_NUM_1":1,"Next_Stop":"Škára","BUS_STOP_NUM_2":529,"BUS_STOP_SUB_NUM_2":1,"PLANNED_ROAD":850,"REAL_ROAD":309,"DELAY":41,"VEHICLE_NUMBER":727,"Order_In_Json_Id":9,"Type":"MHD","Current_Time":1611681158567,"CHANGE_OF_DELAY":1,"Street":"Košická","isOnStop":false}},{"type":"Feature","geometry":{"type":"Point","coordinates":[21.23546,49.00085]},"properties":{"ROUTE_NUMBER":15,"PLANNED_START":"17:48","DIRECTION":"P","BUS_STOP_ORDER_NUM":9,"Current_Stop":"Obrancov mieru","BUS_STOP_NUM_1":195,"BUS_STOP_SUB_NUM_1":2,"Next_Stop":"Poliklinika","BUS_STOP_NUM_2":156,"BUS_STOP_SUB_NUM_2":1,"PLANNED_ROAD":850,"REAL_ROAD":765,"DELAY":-32,"VEHICLE_NUMBER":401,"Order_In_Json_Id":10,"Type":"MHD","Current_Time":1611681158567,"CHANGE_OF_DELAY":1,"isOnStop":false}},{"type":"Feature","geometry":{"type":"Point","coordinates":[21.27088,48.99155]},"properties":{"ROUTE_NUMBER":4,"PLANNED_START":"17:30","DIRECTION":"P","BUS_STOP_ORDER_NUM":18,"Current_Stop":"L.Novomeského","BUS_STOP_NUM_1":44,"BUS_STOP_SUB_NUM_1":1,"Next_Stop":"Vansovej","BUS_STOP_NUM_2":45,"BUS_STOP_SUB_NUM_2":1,"PLANNED_ROAD":470,"REAL_ROAD":404,"DELAY":-76,"VEHICLE_NUMBER":745,"Order_In_Json_Id":12,"Type":"MHD","Current_Time":1611681158567,"CHANGE_OF_DELAY":1,"isOnStop":false}},{"type":"Feature","geometry":{"type":"Point","coordinates":[21.23462,49.00071]},"properties":{"ROUTE_NUMBER":4,"PLANNED_START":"17:50","DIRECTION":"P","BUS_STOP_ORDER_NUM":7,"Current_Stop":"Clementisova","BUS_STOP_NUM_1":187,"BUS_STOP_SUB_NUM_1":1,"Next_Stop":"Poliklinika","BUS_STOP_NUM_2":156,"BUS_STOP_SUB_NUM_2":1,"PLANNED_ROAD":1005,"REAL_ROAD":922,"DELAY":37,"VEHICLE_NUMBER":728,"Order_In_Json_Id":13,"Type":"MHD","Current_Time":1611681158567,"CHANGE_OF_DELAY":-5,"isOnStop":false}},{"type":"Feature","geometry":{"type":"Point","coordinates":[21.24149,48.9963]},"properties":{"ROUTE_NUMBER":2,"PLANNED_START":"17:50","DIRECTION":"P","BUS_STOP_ORDER_NUM":7,"Current_Stop":"Trojica","BUS_STOP_NUM_1":1,"BUS_STOP_SUB_NUM_1":1,"Next_Stop":"Na Hlavnej","BUS_STOP_NUM_2":2,"BUS_STOP_SUB_NUM_2":1,"PLANNED_ROAD":394,"REAL_ROAD":354,"DELAY":35,"VEHICLE_NUMBER":740,"Order_In_Json_Id":19,"Type":"MHD","Current_Time":1611681158567,"CHANGE_OF_DELAY":45,"Street":"Baštová","isOnStop":false}},{"type":"Feature","geometry":{"type":"Point","coordinates":[21.25246,48.98272]},"properties":{"ROUTE_NUMBER":38,"PLANNED_START":"17:48","DIRECTION":"T","BUS_STOP_ORDER_NUM":7,"Current_Stop":"Škára","BUS_STOP_NUM_1":529,"BUS_STOP_SUB_NUM_1":0,"Next_Stop":"Železničná stanica","BUS_STOP_NUM_2":35,"BUS_STOP_SUB_NUM_2":0,"PLANNED_ROAD":850,"REAL_ROAD":340,"DELAY":-73,"VEHICLE_NUMBER":725,"Order_In_Json_Id":22,"Type":"MHD","Current_Time":1611681158567,"CHANGE_OF_DELAY":-6,"isOnStop":false}},{"type":"Feature","geometry":{"type":"Point","coordinates":[21.26784,48.99388]},"properties":{"ROUTE_NUMBER":38,"PLANNED_START":"17:35","DIRECTION":"P","BUS_STOP_ORDER_NUM":16,"Current_Stop":"Martina Benku","BUS_STOP_NUM_1":39,"BUS_STOP_SUB_NUM_1":1,"Next_Stop":"Jurkovičova","BUS_STOP_NUM_2":40,"BUS_STOP_SUB_NUM_2":1,"PLANNED_ROAD":846,"REAL_ROAD":799,"DELAY":8,"VEHICLE_NUMBER":722,"Order_In_Json_Id":1,"Type":"MHD","Current_Time":1611681188575,"CHANGE_OF_DELAY":9,"Street":"Pod Táborom","isOnStop":false}},{"type":"Feature","geometry":{"type":"Point","coordinates":[21.22852,49.02329]},"properties":{"ROUTE_NUMBER":38,"PLANNED_START":"17:28","DIRECTION":"T","BUS_STOP_ORDER_NUM":19,"Current_Stop":"Prostějovská","BUS_STOP_NUM_1":192,"BUS_STOP_SUB_NUM_1":0,"Next_Stop":"Sídlisko III","BUS_STOP_NUM_2":193,"BUS_STOP_SUB_NUM_2":2,"PLANNED_ROAD":422,"REAL_ROAD":388,"DELAY":-225,"VEHICLE_NUMBER":723,"Order_In_Json_Id":5,"Type":"MHD","Current_Time":1611681188575,"CHANGE_OF_DELAY":7,"Street":"Na Bikoši","isOnStop":false}},{"type":"Feature","geometry":{"type":"Point","coordinates":[21.30052,48.9912]},"properties":{"ROUTE_NUMBER":22,"PLANNED_START":"17:30","DIRECTION":"P","BUS_STOP_ORDER_NUM":22,"Current_Stop":"Labutia","BUS_STOP_NUM_1":534,"BUS_STOP_SUB_NUM_1":0,"Next_Stop":"Rázc.Teriakovce","BUS_STOP_NUM_2":58,"BUS_STOP_SUB_NUM_2":1,"PLANNED_ROAD":1020,"REAL_ROAD":897,"DELAY":-102,"VEHICLE_NUMBER":386,"Order_In_Json_Id":11,"Type":"MHD","Current_Time":1611681188575,"CHANGE_OF_DELAY":-3,"isOnStop":false}},{"type":"Feature","geometry":{"type":"Point","coordinates":[21.23591,49.00086]},"properties":{"ROUTE_NUMBER":4,"PLANNED_START":"17:50","DIRECTION":"P","BUS_STOP_ORDER_NUM":7,"Current_Stop":"Clementisova","BUS_STOP_NUM_1":187,"BUS_STOP_SUB_NUM_1":1,"Next_Stop":"Poliklinika","BUS_STOP_NUM_2":156,"BUS_STOP_SUB_NUM_2":1,"PLANNED_ROAD":1005,"REAL_ROAD":1005,"DELAY":32,"VEHICLE_NUMBER":728,"Order_In_Json_Id":13,"Type":"MHD","Current_Time":1611681188575,"CHANGE_OF_DELAY":-15,"isOnStop":false}},{"type":"Feature","geometry":{"type":"Point","coordinates":[21.24521,48.99164]},"properties":{"ROUTE_NUMBER":39,"PLANNED_START":"17:45","DIRECTION":"P","BUS_STOP_ORDER_NUM":9,"Current_Stop":"Na Hlavnej","BUS_STOP_NUM_1":2,"BUS_STOP_SUB_NUM_1":1,"Next_Stop":"Veľká pošta","BUS_STOP_NUM_2":3,"BUS_STOP_SUB_NUM_2":1,"PLANNED_ROAD":555,"REAL_ROAD":555,"DELAY":26,"VEHICLE_NUMBER":397,"Order_In_Json_Id":15,"Type":"MHD","Current_Time":1611681188575,"CHANGE_OF_DELAY":2,"Street":"Pavlovičovo námestie","isOnStop":false}},{"type":"Feature","geometry":{"type":"Point","coordinates":[21.25612,48.98166]},"properties":{"ROUTE_NUMBER":28,"PLANNED_START":"17:50","DIRECTION":"T","BUS_STOP_ORDER_NUM":6,"Current_Stop":"Lomnická","BUS_STOP_NUM_1":61,"BUS_STOP_SUB_NUM_1":1,"Next_Stop":"Škára","BUS_STOP_NUM_2":529,"BUS_STOP_SUB_NUM_2":0,"PLANNED_ROAD":1230,"REAL_ROAD":1150,"DELAY":-102,"VEHICLE_NUMBER":357,"Order_In_Json_Id":24,"Type":"MHD","Current_Time":1611681188575,"CHANGE_OF_DELAY":1,"Street":"Pri mlyne","isOnStop":false}},{"type":"Feature","geometry":{"type":"Point","coordinates":[21.25259,48.9964]},"properties":{"ROUTE_NUMBER":10,"PLANNED_START":"17:59","DIRECTION":"P","BUS_STOP_ORDER_NUM":1,"Current_Stop":"Fakultná nemocnica","BUS_STOP_NUM_1":117,"BUS_STOP_SUB_NUM_1":1,"Next_Stop":"Detská nemocnica","BUS_STOP_NUM_2":116,"BUS_STOP_SUB_NUM_2":1,"PLANNED_ROAD":284,"REAL_ROAD":0,"DELAY":-29,"VEHICLE_NUMBER":400,"Order_In_Json_Id":30,"Type":"MHD","Current_Time":1611681188575,"Street":"Moyzesova","isOnStop":false}},{"type":"Feature","geometry":{"type":"Point","coordinates":[21.23702,49.00116]},"properties":{"ROUTE_NUMBER":15,"PLANNED_START":"17:48","DIRECTION":"P","BUS_STOP_ORDER_NUM":9,"Current_Stop":"Obrancov mieru","BUS_STOP_NUM_1":195,"BUS_STOP_SUB_NUM_1":2,"Next_Stop":"Poliklinika","BUS_STOP_NUM_2":156,"BUS_STOP_SUB_NUM_2":1,"PLANNED_ROAD":850,"REAL_ROAD":850,"DELAY":-47,"VEHICLE_NUMBER":401,"Order_In_Json_Id":9,"Type":"MHD","Current_Time":1611681203583,"CHANGE_OF_DELAY":2,"Street":"Remscheidská","isOnStop":false}},{"type":"Feature","geometry":{"type":"Point","coordinates":[21.24255,48.99504]},"properties":{"ROUTE_NUMBER":2,"PLANNED_START":"17:50","DIRECTION":"P","BUS_STOP_ORDER_NUM":8,"Current_Stop":"Na Hlavnej","BUS_STOP_NUM_1":2,"BUS_STOP_SUB_NUM_1":1,"Next_Stop":"Veľká pošta","BUS_STOP_NUM_2":3,"BUS_STOP_SUB_NUM_2":1,"PLANNED_ROAD":555,"REAL_ROAD":121,"DELAY":34,"VEHICLE_NUMBER":740,"Order_In_Json_Id":17,"Type":"MHD","Current_Time":1611681203583,"CHANGE_OF_DELAY":6,"isOnStop":false}},{"type":"Feature","geometry":{"type":"Point","coordinates":[21.26895,48.9953]},"properties":{"ROUTE_NUMBER":12,"PLANNED_START":"17:15","DIRECTION":"P","BUS_STOP_ORDER_NUM":30,"Current_Stop":"Jurkovičova","BUS_STOP_NUM_1":40,"BUS_STOP_SUB_NUM_1":1,"Next_Stop":"Karpatská","BUS_STOP_NUM_2":41,"BUS_STOP_SUB_NUM_2":1,"PLANNED_ROAD":353,"REAL_ROAD":105,"DELAY":-147,"VEHICLE_NUMBER":3433,"Order_In_Json_Id":18,"Type":"MHD","Current_Time":1611681203583,"CHANGE_OF_DELAY":9,"isOnStop":false}},{"type":"Feature","geometry":{"type":"Point","coordinates":[21.24549,48.99135]},"properties":{"ROUTE_NUMBER":1,"PLANNED_START":"17:55","DIRECTION":"P","BUS_STOP_ORDER_NUM":1,"Current_Stop":"Nižná Šebastová","BUS_STOP_NUM_1":77,"BUS_STOP_SUB_NUM_1":1,"Next_Stop":"Pažica","BUS_STOP_NUM_2":83,"BUS_STOP_SUB_NUM_2":1,"PLANNED_ROAD":420,"REAL_ROAD":0,"DELAY":-287,"VEHICLE_NUMBER":738,"Order_In_Json_Id":19,"Type":"MHD","Current_Time":1611681203583,"CHANGE_OF_DELAY":-858,"Street":"Pavlovičovo námestie","isOnStop":false}},{"type":"Feature","geometry":{"type":"Point","coordinates":[21.17591,48.98723]},"properties":{"ROUTE_NUMBER":18,"PLANNED_START":"17:40","DIRECTION":"T","BUS_STOP_ORDER_NUM":12,"Current_Stop":"Školské lesy","BUS_STOP_NUM_1":170,"BUS_STOP_SUB_NUM_1":0,"Next_Stop":"Cemjata","BUS_STOP_NUM_2":171,"BUS_STOP_SUB_NUM_2":2,"PLANNED_ROAD":454,"REAL_ROAD":54,"DELAY":-46,"VEHICLE_NUMBER":394,"Order_In_Json_Id":4,"Type":"MHD","Current_Time":1611681218598,"CHANGE_OF_DELAY":-9,"Street":"Medvedia","isOnStop":false}},{"type":"Feature","geometry":{"type":"Point","coordinates":[21.30218,48.99105]},"properties":{"ROUTE_NUMBER":22,"PLANNED_START":"17:30","DIRECTION":"P","BUS_STOP_ORDER_NUM":23,"Current_Stop":"Rázc.Teriakovce","BUS_STOP_NUM_1":58,"BUS_STOP_SUB_NUM_1":1,"Next_Stop":"Na Kruhu","BUS_STOP_NUM_2":535,"BUS_STOP_SUB_NUM_2":0,"PLANNED_ROAD":180,"REAL_ROAD":18,"DELAY":-108,"VEHICLE_NUMBER":386,"Order_In_Json_Id":10,"Type":"MHD","Current_Time":1611681218598,"CHANGE_OF_DELAY":-6,"isOnStop":false}},{"type":"Feature","geometry":{"type":"Point","coordinates":[21.17538,48.98515]},"properties":{"ROUTE_NUMBER":18,"PLANNED_START":"17:40","DIRECTION":"T","BUS_STOP_ORDER_NUM":12,"Current_Stop":"Školské lesy","BUS_STOP_NUM_1":170,"BUS_STOP_SUB_NUM_1":0,"Next_Stop":"Cemjata","BUS_STOP_NUM_2":171,"BUS_STOP_SUB_NUM_2":2,"PLANNED_ROAD":454,"REAL_ROAD":290,"DELAY":-40,"VEHICLE_NUMBER":394,"Order_In_Json_Id":4,"Type":"MHD","Current_Time":1611681233613,"CHANGE_OF_DELAY":6,"Street":"Medvedia","isOnStop":false}},{"type":"Feature","geometry":{"type":"Point","coordinates":[21.26541,48.9903]},"properties":{"ROUTE_NUMBER":8,"PLANNED_START":"17:55","DIRECTION":"T","BUS_STOP_ORDER_NUM":3,"Current_Stop":"Jurkovičova","BUS_STOP_NUM_1":40,"BUS_STOP_SUB_NUM_1":0,"Next_Stop":"Martina Benku","BUS_STOP_NUM_2":39,"BUS_STOP_SUB_NUM_2":0,"PLANNED_ROAD":803,"REAL_ROAD":445,"DELAY":-74,"VEHICLE_NUMBER":729,"Order_In_Json_Id":5,"Type":"MHD","Current_Time":1611681233613,"CHANGE_OF_DELAY":-1,"isOnStop":false}},{"type":"Feature","geometry":{"type":"Point","coordinates":[21.25942,48.97995]},"properties":{"ROUTE_NUMBER":8,"PLANNED_START":"17:40","DIRECTION":"P","BUS_STOP_ORDER_NUM":14,"Current_Stop":"Škára","BUS_STOP_NUM_1":529,"BUS_STOP_SUB_NUM_1":1,"Next_Stop":"Lesnícka","BUS_STOP_NUM_2":37,"BUS_STOP_SUB_NUM_2":1,"PLANNED_ROAD":840,"REAL_ROAD":252,"DELAY":70,"VEHICLE_NUMBER":727,"Order_In_Json_Id":8,"Type":"MHD","Current_Time":1611681233613,"CHANGE_OF_DELAY":19,"isOnStop":false}},{"type":"Feature","geometry":{"type":"Point","coordinates":[21.2472,49.00645]},"properties":{"ROUTE_NUMBER":1,"PLANNED_START":"17:45","DIRECTION":"T","BUS_STOP_ORDER_NUM":11,"Current_Stop":"Duklianska","BUS_STOP_NUM_1":78,"BUS_STOP_SUB_NUM_1":0,"Next_Stop":"Rázcestie Kúty","BUS_STOP_NUM_2":79,"BUS_STOP_SUB_NUM_2":0,"PLANNED_ROAD":760,"REAL_ROAD":407,"DELAY":102,"VEHICLE_NUMBER":737,"Order_In_Json_Id":6,"Type":"MHD","Current_Time":1611681233613,"CHANGE_OF_DELAY":15,"Street":"Šafárikova","isOnStop":false}},{"type":"Feature","geometry":{"type":"Point","coordinates":[21.23887,49.0017]},"properties":{"ROUTE_NUMBER":15,"PLANNED_START":"17:48","DIRECTION":"P","BUS_STOP_ORDER_NUM":10,"Current_Stop":"Poliklinika","BUS_STOP_NUM_1":156,"BUS_STOP_SUB_NUM_1":1,"Next_Stop":"Trojica","BUS_STOP_NUM_2":1,"BUS_STOP_SUB_NUM_2":1,"PLANNED_ROAD":530,"REAL_ROAD":207,"DELAY":-31,"VEHICLE_NUMBER":401,"Order_In_Json_Id":9,"Type":"MHD","Current_Time":1611681233613,"CHANGE_OF_DELAY":-2,"Street":"Čapajevova","isOnStop":false}},{"type":"Feature","geometry":{"type":"Point","coordinates":[21.24437,48.99296]},"properties":{"ROUTE_NUMBER":4,"PLANNED_START":"17:46","DIRECTION":"T","BUS_STOP_ORDER_NUM":9,"Current_Stop":"Čierny most","BUS_STOP_NUM_1":4,"BUS_STOP_SUB_NUM_1":0,"Next_Stop":"Divadlo Jonáša Záborského","BUS_STOP_NUM_2":205,"BUS_STOP_SUB_NUM_2":0,"PLANNED_ROAD":461,"REAL_ROAD":393,"DELAY":-40,"VEHICLE_NUMBER":746,"Order_In_Json_Id":20,"Type":"MHD","Current_Time":1611681233613,"CHANGE_OF_DELAY":3,"Street":"Štefánikova","isOnStop":false}},{"type":"Feature","geometry":{"type":"Point","coordinates":[21.24658,48.98999]},"properties":{"ROUTE_NUMBER":1,"PLANNED_START":"17:55","DIRECTION":"P","BUS_STOP_ORDER_NUM":1,"Current_Stop":"Nižná Šebastová","BUS_STOP_NUM_1":77,"BUS_STOP_SUB_NUM_1":1,"Next_Stop":"Pažica","BUS_STOP_NUM_2":83,"BUS_STOP_SUB_NUM_2":1,"PLANNED_ROAD":420,"REAL_ROAD":201,"DELAY":-288,"VEHICLE_NUMBER":738,"Order_In_Json_Id":18,"Type":"MHD","Current_Time":1611681233613,"CHANGE_OF_DELAY":-2,"isOnStop":false}},{"type":"Feature","geometry":{"type":"Point","coordinates":[21.2365,49.00096]},"properties":{"ROUTE_NUMBER":32,"PLANNED_START":"17:57","DIRECTION":"P","BUS_STOP_ORDER_NUM":3,"Current_Stop":"Poliklinika","BUS_STOP_NUM_1":156,"BUS_STOP_SUB_NUM_1":1,"Next_Stop":"Trojica","BUS_STOP_NUM_2":1,"BUS_STOP_SUB_NUM_2":1,"PLANNED_ROAD":530,"REAL_ROAD":33,"DELAY":50,"VEHICLE_NUMBER":350,"Order_In_Json_Id":25,"Type":"MHD","Current_Time":1611681233613,"CHANGE_OF_DELAY":-6,"isOnStop":false}},{"type":"Feature","geometry":{"type":"Point","coordinates":[21.25077,48.99867]},"properties":{"ROUTE_NUMBER":10,"PLANNED_START":"17:59","DIRECTION":"P","BUS_STOP_ORDER_NUM":2,"Current_Stop":"Detská nemocnica","BUS_STOP_NUM_1":116,"BUS_STOP_SUB_NUM_1":1,"Next_Stop":"Dilongova","BUS_STOP_NUM_2":118,"BUS_STOP_SUB_NUM_2":0,"PLANNED_ROAD":350,"REAL_ROAD":21,"DELAY":-17,"VEHICLE_NUMBER":400,"Order_In_Json_Id":29,"Type":"MHD","Current_Time":1611681233613,"CHANGE_OF_DELAY":-11,"isOnStop":false}},{"type":"Feature","geometry":{"type":"Point","coordinates":[21.24625,48.99037]},"properties":{"ROUTE_NUMBER":39,"PLANNED_START":"17:45","DIRECTION":"P","BUS_STOP_ORDER_NUM":10,"Current_Stop":"Veľká pošta","BUS_STOP_NUM_1":3,"BUS_STOP_SUB_NUM_1":1,"Next_Stop":"Čierny most","BUS_STOP_NUM_2":4,"BUS_STOP_SUB_NUM_2":1,"PLANNED_ROAD":220,"REAL_ROAD":162,"DELAY":22,"VEHICLE_NUMBER":397,"Order_In_Json_Id":13,"Type":"MHD","Current_Time":1611681233613,"CHANGE_OF_DELAY":13,"isOnStop":false}},{"type":"Feature","geometry":{"type":"Point","coordinates":[21.22146,49.00671]},"properties":{"ROUTE_NUMBER":8,"PLANNED_START":"17:35","DIRECTION":"T","BUS_STOP_ORDER_NUM":15,"Current_Stop":"Volgogradská","BUS_STOP_NUM_1":188,"BUS_STOP_SUB_NUM_1":0,"Next_Stop":"Nám.Kráľ.pokoja","BUS_STOP_NUM_2":189,"BUS_STOP_SUB_NUM_2":0,"PLANNED_ROAD":287,"REAL_ROAD":287,"DELAY":-6,"VEHICLE_NUMBER":724,"Order_In_Json_Id":21,"Type":"MHD","Current_Time":1611681233613,"CHANGE_OF_DELAY":5,"Street":"Tehelná","isOnStop":false}},{"type":"Feature","geometry":{"type":"Point","coordinates":[21.22096,49.00418]},"properties":{"ROUTE_NUMBER":12,"PLANNED_START":"17:28","DIRECTION":"T","BUS_STOP_ORDER_NUM":21,"Current_Stop":"M.Čulena","BUS_STOP_NUM_1":178,"BUS_STOP_SUB_NUM_1":0,"Next_Stop":"Volgogradská","BUS_STOP_NUM_2":188,"BUS_STOP_SUB_NUM_2":0,"PLANNED_ROAD":559,"REAL_ROAD":559,"DELAY":37,"VEHICLE_NUMBER":392,"Order_In_Json_Id":2,"Type":"MHD","Current_Time":1611681248626,"CHANGE_OF_DELAY":-9,"isOnStop":false}},{"type":"Feature","geometry":{"type":"Point","coordinates":[21.17525,48.98393]},"properties":{"ROUTE_NUMBER":18,"PLANNED_START":"17:40","DIRECTION":"T","BUS_STOP_ORDER_NUM":12,"Current_Stop":"Školské lesy","BUS_STOP_NUM_1":170,"BUS_STOP_SUB_NUM_1":0,"Next_Stop":"Cemjata","BUS_STOP_NUM_2":171,"BUS_STOP_SUB_NUM_2":2,"PLANNED_ROAD":454,"REAL_ROAD":408,"DELAY":-40,"VEHICLE_NUMBER":394,"Order_In_Json_Id":3,"Type":"MHD","Current_Time":1611681248626,"CHANGE_OF_DELAY":0,"Street":"Jelenia","isOnStop":false}},{"type":"Feature","geometry":{"type":"Point","coordinates":[21.26508,48.98922]},"properties":{"ROUTE_NUMBER":8,"PLANNED_START":"17:55","DIRECTION":"T","BUS_STOP_ORDER_NUM":3,"Current_Stop":"Jurkovičova","BUS_STOP_NUM_1":40,"BUS_STOP_SUB_NUM_1":0,"Next_Stop":"Martina Benku","BUS_STOP_NUM_2":39,"BUS_STOP_SUB_NUM_2":0,"PLANNED_ROAD":803,"REAL_ROAD":576,"DELAY":-71,"VEHICLE_NUMBER":729,"Order_In_Json_Id":4,"Type":"MHD","Current_Time":1611681248626,"CHANGE_OF_DELAY":3,"isOnStop":false}},{"type":"Feature","geometry":{"type":"Point","coordinates":[21.24898,49.0076]},"properties":{"ROUTE_NUMBER":1,"PLANNED_START":"17:45","DIRECTION":"T","BUS_STOP_ORDER_NUM":11,"Current_Stop":"Duklianska","BUS_STOP_NUM_1":78,"BUS_STOP_SUB_NUM_1":0,"Next_Stop":"Rázcestie Kúty","BUS_STOP_NUM_2":79,"BUS_STOP_SUB_NUM_2":0,"PLANNED_ROAD":760,"REAL_ROAD":601,"DELAY":116,"VEHICLE_NUMBER":737,"Order_In_Json_Id":5,"Type":"MHD","Current_Time":1611681248626,"CHANGE_OF_DELAY":14,"Street":"K Starej tehelni","isOnStop":false}},{"type":"Feature","geometry":{"type":"Point","coordinates":[21.25986,48.97199]},"properties":{"ROUTE_NUMBER":45,"PLANNED_START":"17:30","DIRECTION":"P","BUS_STOP_ORDER_NUM":18,"Current_Stop":"Lomnická","BUS_STOP_NUM_1":61,"BUS_STOP_SUB_NUM_1":0,"Next_Stop":"Švábska","BUS_STOP_NUM_2":62,"BUS_STOP_SUB_NUM_2":0,"PLANNED_ROAD":400,"REAL_ROAD":272,"DELAY":-57,"VEHICLE_NUMBER":398,"Order_In_Json_Id":6,"Type":"MHD","Current_Time":1611681248626,"CHANGE_OF_DELAY":0,"Street":"Pionierska","isOnStop":false}},{"type":"Feature","geometry":{"type":"Point","coordinates":[21.26114,48.97903]},"properties":{"ROUTE_NUMBER":8,"PLANNED_START":"17:40","DIRECTION":"P","BUS_STOP_ORDER_NUM":14,"Current_Stop":"Škára","BUS_STOP_NUM_1":529,"BUS_STOP_SUB_NUM_1":1,"Next_Stop":"Lesnícka","BUS_STOP_NUM_2":37,"BUS_STOP_SUB_NUM_2":1,"PLANNED_ROAD":840,"REAL_ROAD":412,"DELAY":76,"VEHICLE_NUMBER":727,"Order_In_Json_Id":7,"Type":"MHD","Current_Time":1611681248626,"CHANGE_OF_DELAY":6,"Street":"Suchoňova","isOnStop":false}},{"type":"Feature","geometry":{"type":"Point","coordinates":[21.23866,49.00156]},"properties":{"ROUTE_NUMBER":4,"PLANNED_START":"17:50","DIRECTION":"P","BUS_STOP_ORDER_NUM":8,"Current_Stop":"Poliklinika","BUS_STOP_NUM_1":156,"BUS_STOP_SUB_NUM_1":1,"Next_Stop":"Trojica","BUS_STOP_NUM_2":1,"BUS_STOP_SUB_NUM_2":1,"PLANNED_ROAD":530,"REAL_ROAD":216,"DELAY":22,"VEHICLE_NUMBER":728,"Order_In_Json_Id":10,"Type":"MHD","Current_Time":1611681248626,"CHANGE_OF_DELAY":-13,"Street":"Čapajevova","isOnStop":false}},{"type":"Feature","geometry":{"type":"Point","coordinates":[21.24657,48.98999]},"properties":{"ROUTE_NUMBER":39,"PLANNED_START":"17:45","DIRECTION":"P","BUS_STOP_ORDER_NUM":10,"Current_Stop":"Veľká pošta","BUS_STOP_NUM_1":3,"BUS_STOP_SUB_NUM_1":1,"Next_Stop":"Čierny most","BUS_STOP_NUM_2":4,"BUS_STOP_SUB_NUM_2":1,"PLANNED_ROAD":220,"REAL_ROAD":220,"DELAY":30,"VEHICLE_NUMBER":397,"Order_In_Json_Id":12,"Type":"MHD","Current_Time":1611681248626,"CHANGE_OF_DELAY":8,"isOnStop":false}},{"type":"Feature","geometry":{"type":"Point","coordinates":[21.25854,49.01091]},"properties":{"ROUTE_NUMBER":7,"PLANNED_START":"17:45","DIRECTION":"T","BUS_STOP_ORDER_NUM":11,"Current_Stop":"Dopravný podnik","BUS_STOP_NUM_1":80,"BUS_STOP_SUB_NUM_1":0,"Next_Stop":"Ľubochnianska","BUS_STOP_NUM_2":100,"BUS_STOP_SUB_NUM_2":0,"PLANNED_ROAD":1083,"REAL_ROAD":19,"DELAY":-29,"VEHICLE_NUMBER":735,"Order_In_Json_Id":14,"Type":"MHD","Current_Time":1611681248626,"CHANGE_OF_DELAY":-15,"isOnStop":false}},{"type":"Feature","geometry":{"type":"Point","coordinates":[21.24405,48.99336]},"properties":{"ROUTE_NUMBER":4,"PLANNED_START":"17:46","DIRECTION":"T","BUS_STOP_ORDER_NUM":9,"Current_Stop":"Čierny most","BUS_STOP_NUM_1":4,"BUS_STOP_SUB_NUM_1":0,"Next_Stop":"Divadlo Jonáša Záborského","BUS_STOP_NUM_2":205,"BUS_STOP_SUB_NUM_2":0,"PLANNED_ROAD":461,"REAL_ROAD":461,"DELAY":-28,"VEHICLE_NUMBER":746,"Order_In_Json_Id":19,"Type":"MHD","Current_Time":1611681248626,"CHANGE_OF_DELAY":12,"Street":"Štefánikova","isOnStop":false}},{"type":"Feature","geometry":{"type":"Point","coordinates":[21.26963,48.99642]},"properties":{"ROUTE_NUMBER":38,"PLANNED_START":"17:35","DIRECTION":"P","BUS_STOP_ORDER_NUM":17,"Current_Stop":"Jurkovičova","BUS_STOP_NUM_1":40,"BUS_STOP_SUB_NUM_1":1,"Next_Stop":"Karpatská","BUS_STOP_NUM_2":41,"BUS_STOP_SUB_NUM_2":1,"PLANNED_ROAD":353,"REAL_ROAD":254,"DELAY":-10,"VEHICLE_NUMBER":722,"Order_In_Json_Id":1,"Type":"MHD","Current_Time":1611681263636,"CHANGE_OF_DELAY":-15,"Street":"Jurkovičova","isOnStop":false}},{"type":"Feature","geometry":{"type":"Point","coordinates":[21.17514,48.98366]},"properties":{"ROUTE_NUMBER":18,"PLANNED_START":"17:40","DIRECTION":"T","BUS_STOP_ORDER_NUM":12,"Current_Stop":"Školské lesy","BUS_STOP_NUM_1":170,"BUS_STOP_SUB_NUM_1":0,"Next_Stop":"Cemjata","BUS_STOP_NUM_2":171,"BUS_STOP_SUB_NUM_2":2,"PLANNED_ROAD":454,"REAL_ROAD":444,"DELAY":-44,"VEHICLE_NUMBER":394,"Order_In_Json_Id":3,"Type":"MHD","Current_Time":1611681263636,"CHANGE_OF_DELAY":-4,"Street":"Jelenia","isOnStop":false}},{"type":"Feature","geometry":{"type":"Point","coordinates":[21.26271,48.97827]},"properties":{"ROUTE_NUMBER":8,"PLANNED_START":"17:40","DIRECTION":"P","BUS_STOP_ORDER_NUM":14,"Current_Stop":"Škára","BUS_STOP_NUM_1":529,"BUS_STOP_SUB_NUM_1":1,"Next_Stop":"Lesnícka","BUS_STOP_NUM_2":37,"BUS_STOP_SUB_NUM_2":1,"PLANNED_ROAD":840,"REAL_ROAD":557,"DELAY":81,"VEHICLE_NUMBER":727,"Order_In_Json_Id":7,"Type":"MHD","Current_Time":1611681263636,"CHANGE_OF_DELAY":5,"isOnStop":false}},{"type":"Feature","geometry":{"type":"Point","coordinates":[21.2504,49.00836]},"properties":{"ROUTE_NUMBER":1,"PLANNED_START":"17:45","DIRECTION":"T","BUS_STOP_ORDER_NUM":11,"Current_Stop":"Duklianska","BUS_STOP_NUM_1":78,"BUS_STOP_SUB_NUM_1":0,"Next_Stop":"Rázcestie Kúty","BUS_STOP_NUM_2":79,"BUS_STOP_SUB_NUM_2":0,"PLANNED_ROAD":760,"REAL_ROAD":732,"DELAY":120,"VEHICLE_NUMBER":737,"Order_In_Json_Id":5,"Type":"MHD","Current_Time":1611681263636,"CHANGE_OF_DELAY":4,"Street":"Duklianska","isOnStop":false}},{"type":"Feature","geometry":{"type":"Point","coordinates":[21.23888,49.00169]},"properties":{"ROUTE_NUMBER":15,"PLANNED_START":"17:48","DIRECTION":"P","BUS_STOP_ORDER_NUM":10,"Current_Stop":"Poliklinika","BUS_STOP_NUM_1":156,"BUS_STOP_SUB_NUM_1":1,"Next_Stop":"Trojica","BUS_STOP_NUM_2":1,"BUS_STOP_SUB_NUM_2":1,"PLANNED_ROAD":530,"REAL_ROAD":207,"DELAY":-58,"VEHICLE_NUMBER":401,"Order_In_Json_Id":8,"Type":"MHD","Current_Time":1611681263636,"CHANGE_OF_DELAY":-13,"Street":"Čapajevova","isOnStop":false}},{"type":"Feature","geometry":{"type":"Point","coordinates":[21.23867,49.00155]},"properties":{"ROUTE_NUMBER":4,"PLANNED_START":"17:50","DIRECTION":"P","BUS_STOP_ORDER_NUM":8,"Current_Stop":"Poliklinika","BUS_STOP_NUM_1":156,"BUS_STOP_SUB_NUM_1":1,"Next_Stop":"Trojica","BUS_STOP_NUM_2":1,"BUS_STOP_SUB_NUM_2":1,"PLANNED_ROAD":530,"REAL_ROAD":216,"DELAY":7,"VEHICLE_NUMBER":728,"Order_In_Json_Id":10,"Type":"MHD","Current_Time":1611681263636,"CHANGE_OF_DELAY":-15,"Street":"Čapajevova","isOnStop":false}},{"type":"Feature","geometry":{"type":"Point","coordinates":[21.24394,48.99348]},"properties":{"ROUTE_NUMBER":4,"PLANNED_START":"17:46","DIRECTION":"T","BUS_STOP_ORDER_NUM":10,"Current_Stop":"Divadlo Jonáša Záborského","BUS_STOP_NUM_1":205,"BUS_STOP_SUB_NUM_1":0,"Next_Stop":"Na Hlavnej","BUS_STOP_NUM_2":2,"BUS_STOP_SUB_NUM_2":0,"PLANNED_ROAD":290,"REAL_ROAD":17,"DELAY":-41,"VEHICLE_NUMBER":746,"Order_In_Json_Id":19,"Type":"MHD","Current_Time":1611681263636,"CHANGE_OF_DELAY":-13,"Street":"Štefánikova","isOnStop":false}},{"type":"Feature","geometry":{"type":"Point","coordinates":[21.24493,49.03277]},"properties":{"ROUTE_NUMBER":22,"PLANNED_START":"18:00","DIRECTION":"P","BUS_STOP_ORDER_NUM":1,"Current_Stop":"Šidlovec","BUS_STOP_NUM_1":150,"BUS_STOP_SUB_NUM_1":1,"Next_Stop":"Stavbárska","BUS_STOP_NUM_2":148,"BUS_STOP_SUB_NUM_2":1,"PLANNED_ROAD":510,"REAL_ROAD":234,"DELAY":-29,"VEHICLE_NUMBER":3431,"Order_In_Json_Id":28,"Type":"MHD","Current_Time":1611681263636,"CHANGE_OF_DELAY":-12,"Street":"Javorinská","isOnStop":false}},{"type":"Feature","geometry":{"type":"Point","coordinates":[21.24747,48.98879]},"properties":{"ROUTE_NUMBER":36,"PLANNED_START":"17:53","DIRECTION":"P","BUS_STOP_ORDER_NUM":5,"Current_Stop":"Čierny most","BUS_STOP_NUM_1":4,"BUS_STOP_SUB_NUM_1":1,"Next_Stop":"Rusínska","BUS_STOP_NUM_2":204,"BUS_STOP_SUB_NUM_2":0,"PLANNED_ROAD":1230,"REAL_ROAD":130,"DELAY":24,"VEHICLE_NUMBER":367,"Order_In_Json_Id":30,"Type":"MHD","Current_Time":1611681263636,"CHANGE_OF_DELAY":-15,"Street":"Škultétyho","isOnStop":false}},{"type":"Feature","geometry":{"type":"Point","coordinates":[21.25223,49.00905]},"properties":{"ROUTE_NUMBER":1,"PLANNED_START":"17:45","DIRECTION":"T","BUS_STOP_ORDER_NUM":12,"Current_Stop":"Rázcestie Kúty","BUS_STOP_NUM_1":79,"BUS_STOP_SUB_NUM_1":0,"Next_Stop":"Dopravný podnik","BUS_STOP_NUM_2":80,"BUS_STOP_SUB_NUM_2":0,"PLANNED_ROAD":682,"REAL_ROAD":190,"DELAY":134,"VEHICLE_NUMBER":737,"Order_In_Json_Id":4,"Type":"MHD","Current_Time":1611681278638,"CHANGE_OF_DELAY":14,"Street":"Duklianska","isOnStop":false}},{"type":"Feature","geometry":{"type":"Point","coordinates":[21.25858,48.97126]},"properties":{"ROUTE_NUMBER":45,"PLANNED_START":"17:30","DIRECTION":"P","BUS_STOP_ORDER_NUM":18,"Current_Stop":"Lomnická","BUS_STOP_NUM_1":61,"BUS_STOP_SUB_NUM_1":0,"Next_Stop":"Švábska","BUS_STOP_NUM_2":62,"BUS_STOP_SUB_NUM_2":0,"PLANNED_ROAD":400,"REAL_ROAD":400,"DELAY":-60,"VEHICLE_NUMBER":398,"Order_In_Json_Id":5,"Type":"MHD","Current_Time":1611681278638,"CHANGE_OF_DELAY":-2,"Street":"Pionierska","isOnStop":false}},{"type":"Feature","geometry":{"type":"Point","coordinates":[21.24706,48.98938]},"properties":{"ROUTE_NUMBER":39,"PLANNED_START":"17:45","DIRECTION":"P","BUS_STOP_ORDER_NUM":11,"Current_Stop":"Čierny most","BUS_STOP_NUM_1":4,"BUS_STOP_SUB_NUM_1":1,"Next_Stop":"Železničná stanica","BUS_STOP_NUM_2":35,"BUS_STOP_SUB_NUM_2":1,"PLANNED_ROAD":790,"REAL_ROAD":79,"DELAY":19,"VEHICLE_NUMBER":397,"Order_In_Json_Id":11,"Type":"MHD","Current_Time":1611681278638,"CHANGE_OF_DELAY":0,"Street":"Škultétyho","isOnStop":false}},{"type":"Feature","geometry":{"type":"Point","coordinates":[21.24728,48.989]},"properties":{"ROUTE_NUMBER":39,"PLANNED_START":"17:45","DIRECTION":"P","BUS_STOP_ORDER_NUM":11,"Current_Stop":"Čierny most","BUS_STOP_NUM_1":4,"BUS_STOP_SUB_NUM_1":1,"Next_Stop":"Železničná stanica","BUS_STOP_NUM_2":35,"BUS_STOP_SUB_NUM_2":1,"PLANNED_ROAD":790,"REAL_ROAD":122,"DELAY":12,"VEHICLE_NUMBER":397,"Order_In_Json_Id":12,"Type":"MHD","Current_Time":1611681293627,"CHANGE_OF_DELAY":-7,"Street":"Škultétyho","isOnStop":false}},{"type":"Feature","geometry":{"type":"Point","coordinates":[21.2222,49.0106]},"properties":{"ROUTE_NUMBER":8,"PLANNED_START":"17:35","DIRECTION":"T","BUS_STOP_ORDER_NUM":16,"Current_Stop":"Nám.Kráľ.pokoja","BUS_STOP_NUM_1":189,"BUS_STOP_SUB_NUM_1":0,"Next_Stop":"VUKOV","BUS_STOP_NUM_2":190,"BUS_STOP_SUB_NUM_2":0,"PLANNED_ROAD":438,"REAL_ROAD":429,"DELAY":-24,"VEHICLE_NUMBER":724,"Order_In_Json_Id":18,"Type":"MHD","Current_Time":1611681293627,"CHANGE_OF_DELAY":-3,"isOnStop":false}},{"type":"Feature","geometry":{"type":"Point","coordinates":[21.2479,48.98823]},"properties":{"ROUTE_NUMBER":38,"PLANNED_START":"17:48","DIRECTION":"T","BUS_STOP_ORDER_NUM":8,"Current_Stop":"Železničná stanica","BUS_STOP_NUM_1":35,"BUS_STOP_SUB_NUM_1":0,"Next_Stop":"Škultétyho","BUS_STOP_NUM_2":25,"BUS_STOP_SUB_NUM_2":0,"PLANNED_ROAD":990,"REAL_ROAD":465,"DELAY":-43,"VEHICLE_NUMBER":725,"Order_In_Json_Id":16,"Type":"MHD","Current_Time":1611681293627,"CHANGE_OF_DELAY":9,"isOnStop":false}},{"type":"Feature","geometry":{"type":"Point","coordinates":[21.25004,48.98341]},"properties":{"ROUTE_NUMBER":28,"PLANNED_START":"17:50","DIRECTION":"T","BUS_STOP_ORDER_NUM":7,"Current_Stop":"Škára","BUS_STOP_NUM_1":529,"BUS_STOP_SUB_NUM_1":0,"Next_Stop":"Železničná stanica","BUS_STOP_NUM_2":35,"BUS_STOP_SUB_NUM_2":0,"PLANNED_ROAD":850,"REAL_ROAD":510,"DELAY":-133,"VEHICLE_NUMBER":357,"Order_In_Json_Id":20,"Type":"MHD","Current_Time":1611681293627,"CHANGE_OF_DELAY":-8,"Street":"Radlinského","isOnStop":false}},{"type":"Feature","geometry":{"type":"Point","coordinates":[21.26147,49.01206]},"properties":{"ROUTE_NUMBER":7,"PLANNED_START":"17:45","DIRECTION":"T","BUS_STOP_ORDER_NUM":11,"Current_Stop":"Dopravný podnik","BUS_STOP_NUM_1":80,"BUS_STOP_SUB_NUM_1":0,"Next_Stop":"Ľubochnianska","BUS_STOP_NUM_2":100,"BUS_STOP_SUB_NUM_2":0,"PLANNED_ROAD":1083,"REAL_ROAD":275,"DELAY":-50,"VEHICLE_NUMBER":735,"Order_In_Json_Id":13,"Type":"MHD","Current_Time":1611681293627,"CHANGE_OF_DELAY":-8,"isOnStop":false}},{"type":"Feature","geometry":{"type":"Point","coordinates":[21.23922,49.00145]},"properties":{"ROUTE_NUMBER":32,"PLANNED_START":"17:57","DIRECTION":"P","BUS_STOP_ORDER_NUM":3,"Current_Stop":"Poliklinika","BUS_STOP_NUM_1":156,"BUS_STOP_SUB_NUM_1":1,"Next_Stop":"Trojica","BUS_STOP_NUM_2":1,"BUS_STOP_SUB_NUM_2":1,"PLANNED_ROAD":530,"REAL_ROAD":269,"DELAY":38,"VEHICLE_NUMBER":350,"Order_In_Json_Id":23,"Type":"MHD","Current_Time":1611681293627,"CHANGE_OF_DELAY":-5,"Street":"Okružná","isOnStop":false}},{"type":"Feature","geometry":{"type":"Point","coordinates":[21.2699,48.99694]},"properties":{"ROUTE_NUMBER":38,"PLANNED_START":"17:35","DIRECTION":"P","BUS_STOP_ORDER_NUM":17,"Current_Stop":"Jurkovičova","BUS_STOP_NUM_1":40,"BUS_STOP_SUB_NUM_1":1,"Next_Stop":"Karpatská","BUS_STOP_NUM_2":41,"BUS_STOP_SUB_NUM_2":1,"PLANNED_ROAD":353,"REAL_ROAD":331,"DELAY":-26,"VEHICLE_NUMBER":722,"Order_In_Json_Id":1,"Type":"MHD","Current_Time":1611681293627,"CHANGE_OF_DELAY":-2,"isOnStop":false}},{"type":"Feature","geometry":{"type":"Point","coordinates":[21.22145,49.0067]},"properties":{"ROUTE_NUMBER":12,"PLANNED_START":"17:28","DIRECTION":"T","BUS_STOP_ORDER_NUM":22,"Current_Stop":"Volgogradská","BUS_STOP_NUM_1":188,"BUS_STOP_SUB_NUM_1":0,"Next_Stop":"Nám.Kráľ.pokoja","BUS_STOP_NUM_2":189,"BUS_STOP_SUB_NUM_2":0,"PLANNED_ROAD":287,"REAL_ROAD":287,"DELAY":27,"VEHICLE_NUMBER":392,"Order_In_Json_Id":2,"Type":"MHD","Current_Time":1611681308655,"CHANGE_OF_DELAY":-1,"Street":"Tehelná","isOnStop":false}},{"type":"Feature","geometry":{"type":"Point","coordinates":[21.30938,48.99059]},"properties":{"ROUTE_NUMBER":22,"PLANNED_START":"17:30","DIRECTION":"P","BUS_STOP_ORDER_NUM":24,"Current_Stop":"Na Kruhu","BUS_STOP_NUM_1":535,"BUS_STOP_SUB_NUM_1":0,"Next_Stop":"OcÚ Teriakovce","BUS_STOP_NUM_2":59,"BUS_STOP_SUB_NUM_2":1,"PLANNED_ROAD":326,"REAL_ROAD":326,"DELAY":-87,"VEHICLE_NUMBER":386,"Order_In_Json_Id":9,"Type":"MHD","Current_Time":1611681308655,"CHANGE_OF_DELAY":0,"isOnStop":false}},{"type":"Feature","geometry":{"type":"Point","coordinates":[21.25726,48.96976]},"properties":{"ROUTE_NUMBER":45,"PLANNED_START":"17:30","DIRECTION":"P","BUS_STOP_ORDER_NUM":19,"Current_Stop":"Švábska","BUS_STOP_NUM_1":62,"BUS_STOP_SUB_NUM_1":0,"Next_Stop":"Pionierska","BUS_STOP_NUM_2":64,"BUS_STOP_SUB_NUM_2":1,"PLANNED_ROAD":350,"REAL_ROAD":196,"DELAY":-59,"VEHICLE_NUMBER":398,"Order_In_Json_Id":5,"Type":"MHD","Current_Time":1611681308655,"CHANGE_OF_DELAY":4,"isOnStop":false}},{"type":"Feature","geometry":{"type":"Point","coordinates":[21.23915,49.00081]},"properties":{"ROUTE_NUMBER":4,"PLANNED_START":"17:50","DIRECTION":"P","BUS_STOP_ORDER_NUM":8,"Current_Stop":"Poliklinika","BUS_STOP_NUM_1":156,"BUS_STOP_SUB_NUM_1":1,"Next_Stop":"Trojica","BUS_STOP_NUM_2":1,"BUS_STOP_SUB_NUM_2":1,"PLANNED_ROAD":530,"REAL_ROAD":366,"DELAY":-3,"VEHICLE_NUMBER":728,"Order_In_Json_Id":10,"Type":"MHD","Current_Time":1611681308655,"CHANGE_OF_DELAY":4,"Street":"Okružná","isOnStop":false}},{"type":"Feature","geometry":{"type":"Point","coordinates":[21.22139,49.00268]},"properties":{"ROUTE_NUMBER":38,"PLANNED_START":"17:55","DIRECTION":"P","BUS_STOP_ORDER_NUM":6,"Current_Stop":"Volgogradská","BUS_STOP_NUM_1":188,"BUS_STOP_SUB_NUM_1":1,"Next_Stop":"Clementisova","BUS_STOP_NUM_2":187,"BUS_STOP_SUB_NUM_2":1,"PLANNED_ROAD":350,"REAL_ROAD":140,"DELAY":-2,"VEHICLE_NUMBER":744,"Order_In_Json_Id":11,"Type":"MHD","Current_Time":1611681308655,"CHANGE_OF_DELAY":-5,"Street":"Levočská","isOnStop":false}},{"type":"Feature","geometry":{"type":"Point","coordinates":[21.24826,48.98745]},"properties":{"ROUTE_NUMBER":1,"PLANNED_START":"17:55","DIRECTION":"P","BUS_STOP_ORDER_NUM":6,"Current_Stop":"Rázcestie Kúty","BUS_STOP_NUM_1":79,"BUS_STOP_SUB_NUM_1":1,"Next_Stop":"Duklianska","BUS_STOP_NUM_2":78,"BUS_STOP_SUB_NUM_2":1,"PLANNED_ROAD":903,"REAL_ROAD":172,"DELAY":-14,"VEHICLE_NUMBER":738,"Order_In_Json_Id":15,"Type":"MHD","Current_Time":1611681308655,"CHANGE_OF_DELAY":-6,"Street":"Štúrova","isOnStop":false}},{"type":"Feature","geometry":{"type":"Point","coordinates":[21.24759,48.99863]},"properties":{"ROUTE_NUMBER":10,"PLANNED_START":"17:59","DIRECTION":"P","BUS_STOP_ORDER_NUM":2,"Current_Stop":"Detská nemocnica","BUS_STOP_NUM_1":116,"BUS_STOP_SUB_NUM_1":1,"Next_Stop":"Dilongova","BUS_STOP_NUM_2":118,"BUS_STOP_SUB_NUM_2":0,"PLANNED_ROAD":350,"REAL_ROAD":350,"DELAY":-35,"VEHICLE_NUMBER":400,"Order_In_Json_Id":26,"Type":"MHD","Current_Time":1611681308655,"CHANGE_OF_DELAY":-13,"isOnStop":false}},{"type":"Feature","geometry":{"type":"Point","coordinates":[21.24907,48.9895]},"properties":{"ROUTE_NUMBER":36,"PLANNED_START":"17:53","DIRECTION":"P","BUS_STOP_ORDER_NUM":5,"Current_Stop":"Čierny most","BUS_STOP_NUM_1":4,"BUS_STOP_SUB_NUM_1":1,"Next_Stop":"Rusínska","BUS_STOP_NUM_2":204,"BUS_STOP_SUB_NUM_2":0,"PLANNED_ROAD":1230,"REAL_ROAD":340,"DELAY":12,"VEHICLE_NUMBER":367,"Order_In_Json_Id":27,"Type":"MHD","Current_Time":1611681308655,"CHANGE_OF_DELAY":7,"Street":"Škultétyho","isOnStop":false}},{"type":"Feature","geometry":{"type":"Point","coordinates":[21.25684,48.96876]},"properties":{"ROUTE_NUMBER":45,"PLANNED_START":"17:30","DIRECTION":"P","BUS_STOP_ORDER_NUM":19,"Current_Stop":"Švábska","BUS_STOP_NUM_1":62,"BUS_STOP_SUB_NUM_1":0,"Next_Stop":"Pionierska","BUS_STOP_NUM_2":64,"BUS_STOP_SUB_NUM_2":1,"PLANNED_ROAD":350,"REAL_ROAD":308,"DELAY":-57,"VEHICLE_NUMBER":398,"Order_In_Json_Id":5,"Type":"MHD","Current_Time":1611681323647,"CHANGE_OF_DELAY":2,"isOnStop":false}},{"type":"Feature","geometry":{"type":"Point","coordinates":[21.33457,49.02483]},"properties":{"ROUTE_NUMBER":13,"PLANNED_START":"18:01","DIRECTION":"T","BUS_STOP_ORDER_NUM":1,"Current_Stop":"Severná","BUS_STOP_NUM_1":147,"BUS_STOP_SUB_NUM_1":1,"Next_Stop":"Severná - kostol","BUS_STOP_NUM_2":548,"BUS_STOP_SUB_NUM_2":0,"PLANNED_ROAD":350,"REAL_ROAD":182,"DELAY":-44,"VEHICLE_NUMBER":395,"Order_In_Json_Id":9,"Type":"MHD","Current_Time":1611681353669,"CHANGE_OF_DELAY":-10,"isOnStop":false}},{"type":"Feature","geometry":{"type":"Point","coordinates":[21.23984,48.9991]},"properties":{"ROUTE_NUMBER":4,"PLANNED_START":"17:50","DIRECTION":"P","BUS_STOP_ORDER_NUM":9,"Current_Stop":"Trojica","BUS_STOP_NUM_1":1,"BUS_STOP_SUB_NUM_1":1,"Next_Stop":"Na Hlavnej","BUS_STOP_NUM_2":2,"BUS_STOP_SUB_NUM_2":1,"PLANNED_ROAD":394,"REAL_ROAD":42,"DELAY":-3,"VEHICLE_NUMBER":728,"Order_In_Json_Id":10,"Type":"MHD","Current_Time":1611681353669,"CHANGE_OF_DELAY":-1,"Street":"Šarišská","isOnStop":false}},{"type":"Feature","geometry":{"type":"Point","coordinates":[21.26506,49.01263]},"properties":{"ROUTE_NUMBER":7,"PLANNED_START":"17:45","DIRECTION":"T","BUS_STOP_ORDER_NUM":11,"Current_Stop":"Dopravný podnik","BUS_STOP_NUM_1":80,"BUS_STOP_SUB_NUM_1":0,"Next_Stop":"Ľubochnianska","BUS_STOP_NUM_2":100,"BUS_STOP_SUB_NUM_2":0,"PLANNED_ROAD":1083,"REAL_ROAD":551,"DELAY":-82,"VEHICLE_NUMBER":735,"Order_In_Json_Id":13,"Type":"MHD","Current_Time":1611681353669,"CHANGE_OF_DELAY":-7,"isOnStop":false}},{"type":"Feature","geometry":{"type":"Point","coordinates":[21.22241,49.01193]},"properties":{"ROUTE_NUMBER":8,"PLANNED_START":"17:35","DIRECTION":"T","BUS_STOP_ORDER_NUM":17,"Current_Stop":"VUKOV","BUS_STOP_NUM_1":190,"BUS_STOP_SUB_NUM_1":0,"Next_Stop":"Centrum","BUS_STOP_NUM_2":191,"BUS_STOP_SUB_NUM_2":0,"PLANNED_ROAD":730,"REAL_ROAD":159,"DELAY":-46,"VEHICLE_NUMBER":724,"Order_In_Json_Id":18,"Type":"MHD","Current_Time":1611681353669,"CHANGE_OF_DELAY":6,"isOnStop":false}},{"type":"Feature","geometry":{"type":"Point","coordinates":[21.23966,48.99956]},"properties":{"ROUTE_NUMBER":4,"PLANNED_START":"17:46","DIRECTION":"T","BUS_STOP_ORDER_NUM":11,"Current_Stop":"Na Hlavnej","BUS_STOP_NUM_1":2,"BUS_STOP_SUB_NUM_1":0,"Next_Stop":"Trojica","BUS_STOP_NUM_2":1,"BUS_STOP_SUB_NUM_2":0,"PLANNED_ROAD":560,"REAL_ROAD":468,"DELAY":12,"VEHICLE_NUMBER":746,"Order_In_Json_Id":17,"Type":"MHD","Current_Time":1611681353669,"CHANGE_OF_DELAY":15,"Street":"Suchomlynská","isOnStop":false}},{"type":"Feature","geometry":{"type":"Point","coordinates":[21.24886,48.99698]},"properties":{"ROUTE_NUMBER":10,"PLANNED_START":"17:59","DIRECTION":"P","BUS_STOP_ORDER_NUM":4,"Current_Stop":"Sládkovičova","BUS_STOP_NUM_1":119,"BUS_STOP_SUB_NUM_1":0,"Next_Stop":"Moyzesova","BUS_STOP_NUM_2":120,"BUS_STOP_SUB_NUM_2":0,"PLANNED_ROAD":288,"REAL_ROAD":80,"DELAY":-4,"VEHICLE_NUMBER":400,"Order_In_Json_Id":26,"Type":"MHD","Current_Time":1611681353669,"CHANGE_OF_DELAY":0,"Street":"Vajanského","isOnStop":false}},{"type":"Feature","geometry":{"type":"Point","coordinates":[21.26967,49.00031]},"properties":{"ROUTE_NUMBER":38,"PLANNED_START":"17:35","DIRECTION":"P","BUS_STOP_ORDER_NUM":18,"Current_Stop":"Karpatská","BUS_STOP_NUM_1":41,"BUS_STOP_SUB_NUM_1":1,"Next_Stop":"Sibírska","BUS_STOP_NUM_2":36,"BUS_STOP_SUB_NUM_2":1,"PLANNED_ROAD":560,"REAL_ROAD":361,"DELAY":-12,"VEHICLE_NUMBER":722,"Order_In_Json_Id":1,"Type":"MHD","Current_Time":1611681368678,"CHANGE_OF_DELAY":-3,"isOnStop":false}},{"type":"Feature","geometry":{"type":"Point","coordinates":[21.2641,48.97794]},"properties":{"ROUTE_NUMBER":8,"PLANNED_START":"17:40","DIRECTION":"P","BUS_STOP_ORDER_NUM":14,"Current_Stop":"Škára","BUS_STOP_NUM_1":529,"BUS_STOP_SUB_NUM_1":1,"Next_Stop":"Lesnícka","BUS_STOP_NUM_2":37,"BUS_STOP_SUB_NUM_2":1,"PLANNED_ROAD":840,"REAL_ROAD":687,"DELAY":1,"VEHICLE_NUMBER":727,"Order_In_Json_Id":7,"Type":"MHD","Current_Time":1611681368678,"CHANGE_OF_DELAY":-8,"isOnStop":false}},{"type":"Feature","geometry":{"type":"Point","coordinates":[21.26577,49.01305]},"properties":{"ROUTE_NUMBER":7,"PLANNED_START":"17:45","DIRECTION":"T","BUS_STOP_ORDER_NUM":11,"Current_Stop":"Dopravný podnik","BUS_STOP_NUM_1":80,"BUS_STOP_SUB_NUM_1":0,"Next_Stop":"Ľubochnianska","BUS_STOP_NUM_2":100,"BUS_STOP_SUB_NUM_2":0,"PLANNED_ROAD":1083,"REAL_ROAD":620,"DELAY":-88,"VEHICLE_NUMBER":735,"Order_In_Json_Id":13,"Type":"MHD","Current_Time":1611681368678,"CHANGE_OF_DELAY":-6,"isOnStop":false}},{"type":"Feature","geometry":{"type":"Point","coordinates":[21.23933,49.00022]},"properties":{"ROUTE_NUMBER":4,"PLANNED_START":"17:46","DIRECTION":"T","BUS_STOP_ORDER_NUM":11,"Current_Stop":"Na Hlavnej","BUS_STOP_NUM_1":2,"BUS_STOP_SUB_NUM_1":0,"Next_Stop":"Trojica","BUS_STOP_NUM_2":1,"BUS_STOP_SUB_NUM_2":0,"PLANNED_ROAD":560,"REAL_ROAD":560,"DELAY":24,"VEHICLE_NUMBER":746,"Order_In_Json_Id":17,"Type":"MHD","Current_Time":1611681368678,"CHANGE_OF_DELAY":12,"Street":"Suchomlynská","isOnStop":false}},{"type":"Feature","geometry":{"type":"Point","coordinates":[21.22266,49.01324]},"properties":{"ROUTE_NUMBER":8,"PLANNED_START":"17:35","DIRECTION":"T","BUS_STOP_ORDER_NUM":17,"Current_Stop":"VUKOV","BUS_STOP_NUM_1":190,"BUS_STOP_SUB_NUM_1":0,"Next_Stop":"Centrum","BUS_STOP_NUM_2":191,"BUS_STOP_SUB_NUM_2":0,"PLANNED_ROAD":730,"REAL_ROAD":305,"DELAY":-37,"VEHICLE_NUMBER":724,"Order_In_Json_Id":18,"Type":"MHD","Current_Time":1611681368678,"CHANGE_OF_DELAY":9,"Street":"Ku Kráľovej hore","isOnStop":false}},{"type":"Feature","geometry":{"type":"Point","coordinates":[21.22354,49.0183]},"properties":{"ROUTE_NUMBER":8,"PLANNED_START":"18:00","DIRECTION":"P","BUS_STOP_ORDER_NUM":2,"Current_Stop":"Prostějovská","BUS_STOP_NUM_1":192,"BUS_STOP_SUB_NUM_1":1,"Next_Stop":"Centrum","BUS_STOP_NUM_2":191,"BUS_STOP_SUB_NUM_2":1,"PLANNED_ROAD":451,"REAL_ROAD":270,"DELAY":-66,"VEHICLE_NUMBER":743,"Order_In_Json_Id":19,"Type":"MHD","Current_Time":1611681368678,"CHANGE_OF_DELAY":2,"Street":"Mirka Nešpora","isOnStop":false}},{"type":"Feature","geometry":{"type":"Point","coordinates":[21.2398,48.99918]},"properties":{"ROUTE_NUMBER":32,"PLANNED_START":"17:57","DIRECTION":"P","BUS_STOP_ORDER_NUM":3,"Current_Stop":"Poliklinika","BUS_STOP_NUM_1":156,"BUS_STOP_SUB_NUM_1":1,"Next_Stop":"Trojica","BUS_STOP_NUM_2":1,"BUS_STOP_SUB_NUM_2":1,"PLANNED_ROAD":530,"REAL_ROAD":530,"DELAY":37,"VEHICLE_NUMBER":350,"Order_In_Json_Id":23,"Type":"MHD","Current_Time":1611681368678,"CHANGE_OF_DELAY":2,"Street":"Šarišská","isOnStop":false}},{"type":"Feature","geometry":{"type":"Point","coordinates":[21.24068,49.02998]},"properties":{"ROUTE_NUMBER":22,"PLANNED_START":"18:00","DIRECTION":"P","BUS_STOP_ORDER_NUM":2,"Current_Stop":"Stavbárska","BUS_STOP_NUM_1":148,"BUS_STOP_SUB_NUM_1":1,"Next_Stop":"Šidlovská","BUS_STOP_NUM_2":541,"BUS_STOP_SUB_NUM_2":1,"PLANNED_ROAD":370,"REAL_ROAD":333,"DELAY":-44,"VEHICLE_NUMBER":3431,"Order_In_Json_Id":25,"Type":"MHD","Current_Time":1611681368678,"CHANGE_OF_DELAY":-8,"isOnStop":false}},{"type":"Feature","geometry":{"type":"Point","coordinates":[21.2222,49.01075]},"properties":{"ROUTE_NUMBER":12,"PLANNED_START":"17:28","DIRECTION":"T","BUS_STOP_ORDER_NUM":24,"Current_Stop":"VUKOV","BUS_STOP_NUM_1":190,"BUS_STOP_SUB_NUM_1":0,"Next_Stop":"Centrum","BUS_STOP_NUM_2":191,"BUS_STOP_SUB_NUM_2":0,"PLANNED_ROAD":730,"REAL_ROAD":19,"DELAY":13,"VEHICLE_NUMBER":392,"Order_In_Json_Id":2,"Type":"MHD","Current_Time":1611681383681,"CHANGE_OF_DELAY":-13,"isOnStop":false}},{"type":"Feature","geometry":{"type":"Point","coordinates":[21.26357,48.98173]},"properties":{"ROUTE_NUMBER":8,"PLANNED_START":"17:55","DIRECTION":"T","BUS_STOP_ORDER_NUM":5,"Current_Stop":"Pavla Horova","BUS_STOP_NUM_1":38,"BUS_STOP_SUB_NUM_1":0,"Next_Stop":"Lesnícka","BUS_STOP_NUM_2":37,"BUS_STOP_SUB_NUM_2":0,"PLANNED_ROAD":571,"REAL_ROAD":274,"DELAY":-78,"VEHICLE_NUMBER":729,"Order_In_Json_Id":4,"Type":"MHD","Current_Time":1611681383681,"CHANGE_OF_DELAY":1,"Street":"Okrajová","isOnStop":false}},{"type":"Feature","geometry":{"type":"Point","coordinates":[21.24144,48.99634]},"properties":{"ROUTE_NUMBER":15,"PLANNED_START":"17:48","DIRECTION":"P","BUS_STOP_ORDER_NUM":11,"Current_Stop":"Trojica","BUS_STOP_NUM_1":1,"BUS_STOP_SUB_NUM_1":1,"Next_Stop":"Na Hlavnej","BUS_STOP_NUM_2":2,"BUS_STOP_SUB_NUM_2":1,"PLANNED_ROAD":394,"REAL_ROAD":318,"DELAY":-21,"VEHICLE_NUMBER":401,"Order_In_Json_Id":8,"Type":"MHD","Current_Time":1611681383681,"CHANGE_OF_DELAY":20,"Street":"Baštová","isOnStop":false}},{"type":"Feature","geometry":{"type":"Point","coordinates":[21.22676,48.99996]},"properties":{"ROUTE_NUMBER":38,"PLANNED_START":"17:55","DIRECTION":"P","BUS_STOP_ORDER_NUM":7,"Current_Stop":"Clementisova","BUS_STOP_NUM_1":187,"BUS_STOP_SUB_NUM_1":1,"Next_Stop":"Obrancov mieru","BUS_STOP_NUM_2":195,"BUS_STOP_SUB_NUM_2":0,"PLANNED_ROAD":645,"REAL_ROAD":293,"DELAY":5,"VEHICLE_NUMBER":744,"Order_In_Json_Id":11,"Type":"MHD","Current_Time":1611681383681,"CHANGE_OF_DELAY":-3,"Street":"Československej armády","isOnStop":false}},{"type":"Feature","geometry":{"type":"Point","coordinates":[21.23932,49.00022]},"properties":{"ROUTE_NUMBER":4,"PLANNED_START":"17:46","DIRECTION":"T","BUS_STOP_ORDER_NUM":11,"Current_Stop":"Na Hlavnej","BUS_STOP_NUM_1":2,"BUS_STOP_SUB_NUM_1":0,"Next_Stop":"Trojica","BUS_STOP_NUM_2":1,"BUS_STOP_SUB_NUM_2":0,"PLANNED_ROAD":560,"REAL_ROAD":560,"DELAY":12,"VEHICLE_NUMBER":746,"Order_In_Json_Id":17,"Type":"MHD","Current_Time":1611681383681,"CHANGE_OF_DELAY":-12,"Street":"Suchomlynská","isOnStop":false}},{"type":"Feature","geometry":{"type":"Point","coordinates":[21.22328,49.0171]},"properties":{"ROUTE_NUMBER":8,"PLANNED_START":"18:00","DIRECTION":"P","BUS_STOP_ORDER_NUM":2,"Current_Stop":"Prostějovská","BUS_STOP_NUM_1":192,"BUS_STOP_SUB_NUM_1":1,"Next_Stop":"Centrum","BUS_STOP_NUM_2":191,"BUS_STOP_SUB_NUM_2":1,"PLANNED_ROAD":451,"REAL_ROAD":387,"DELAY":-67,"VEHICLE_NUMBER":743,"Order_In_Json_Id":19,"Type":"MHD","Current_Time":1611681383681,"CHANGE_OF_DELAY":-1,"Street":"Mirka Nešpora","isOnStop":false}},{"type":"Feature","geometry":{"type":"Point","coordinates":[21.27536,48.97977]},"properties":{"ROUTE_NUMBER":1,"PLANNED_START":"18:05","DIRECTION":"T","BUS_STOP_ORDER_NUM":1,"Current_Stop":"Solivar","BUS_STOP_NUM_1":56,"BUS_STOP_SUB_NUM_1":0,"Next_Stop":"Múzeum Solivar","BUS_STOP_NUM_2":55,"BUS_STOP_SUB_NUM_2":0,"PLANNED_ROAD":360,"REAL_ROAD":259,"DELAY":-20,"VEHICLE_NUMBER":739,"Order_In_Json_Id":19,"Type":"MHD","Current_Time":1611681593788,"CHANGE_OF_DELAY":0,"Street":"Námestie osloboditeľov","isOnStop":false}},{"type":"Feature","geometry":{"type":"Point","coordinates":[21.26802,48.99411]},"properties":{"ROUTE_NUMBER":8,"PLANNED_START":"17:40","DIRECTION":"P","BUS_STOP_ORDER_NUM":17,"Current_Stop":"Martina Benku","BUS_STOP_NUM_1":39,"BUS_STOP_SUB_NUM_1":1,"Next_Stop":"Jurkovičova","BUS_STOP_NUM_2":40,"BUS_STOP_SUB_NUM_2":1,"PLANNED_ROAD":846,"REAL_ROAD":822,"DELAY":11,"VEHICLE_NUMBER":727,"Order_In_Json_Id":5,"Type":"MHD","Current_Time":1611681608796,"CHANGE_OF_DELAY":8,"Street":"Pod Táborom","isOnStop":false}},{"type":"Feature","geometry":{"type":"Point","coordinates":[21.24939,48.99415]},"properties":{"ROUTE_NUMBER":15,"PLANNED_START":"17:48","DIRECTION":"P","BUS_STOP_ORDER_NUM":13,"Current_Stop":"Grešova","BUS_STOP_NUM_1":114,"BUS_STOP_SUB_NUM_1":1,"Next_Stop":"Fakultná nemocnica","BUS_STOP_NUM_2":117,"BUS_STOP_SUB_NUM_2":1,"PLANNED_ROAD":730,"REAL_ROAD":292,"DELAY":-23,"VEHICLE_NUMBER":401,"Order_In_Json_Id":6,"Type":"MHD","Current_Time":1611681608796,"CHANGE_OF_DELAY":2,"Street":"Kpt. Nálepku","isOnStop":false}},{"type":"Feature","geometry":{"type":"Point","coordinates":[21.24748,48.98875]},"properties":{"ROUTE_NUMBER":4,"PLANNED_START":"17:50","DIRECTION":"P","BUS_STOP_ORDER_NUM":12,"Current_Stop":"Čierny most","BUS_STOP_NUM_1":4,"BUS_STOP_SUB_NUM_1":1,"Next_Stop":"Železničná stanica","BUS_STOP_NUM_2":35,"BUS_STOP_SUB_NUM_2":1,"PLANNED_ROAD":790,"REAL_ROAD":136,"DELAY":51,"VEHICLE_NUMBER":728,"Order_In_Json_Id":10,"Type":"MHD","Current_Time":1611681608796,"CHANGE_OF_DELAY":-14,"Street":"Škultétyho","isOnStop":false}},{"type":"Feature","geometry":{"type":"Point","coordinates":[21.27106,48.99196]},"properties":{"ROUTE_NUMBER":22,"PLANNED_START":"18:05","DIRECTION":"T","BUS_STOP_ORDER_NUM":2,"Current_Stop":"Vansovej","BUS_STOP_NUM_1":45,"BUS_STOP_SUB_NUM_1":0,"Next_Stop":"L.Novomeského","BUS_STOP_NUM_2":44,"BUS_STOP_SUB_NUM_2":0,"PLANNED_ROAD":510,"REAL_ROAD":20,"DELAY":-20,"VEHICLE_NUMBER":396,"Order_In_Json_Id":11,"Type":"MHD","Current_Time":1611681608796,"CHANGE_OF_DELAY":-13,"isOnStop":false}},{"type":"Feature","geometry":{"type":"Point","coordinates":[21.27428,48.97946]},"properties":{"ROUTE_NUMBER":1,"PLANNED_START":"18:05","DIRECTION":"T","BUS_STOP_ORDER_NUM":1,"Current_Stop":"Solivar","BUS_STOP_NUM_1":56,"BUS_STOP_SUB_NUM_1":0,"Next_Stop":"Múzeum Solivar","BUS_STOP_NUM_2":55,"BUS_STOP_SUB_NUM_2":0,"PLANNED_ROAD":360,"REAL_ROAD":360,"DELAY":-22,"VEHICLE_NUMBER":739,"Order_In_Json_Id":19,"Type":"MHD","Current_Time":1611681608796,"CHANGE_OF_DELAY":-2,"Street":"Ondavská","isOnStop":false}},{"type":"Feature","geometry":{"type":"Point","coordinates":[21.2449,48.99217]},"properties":{"ROUTE_NUMBER":28,"PLANNED_START":"17:50","DIRECTION":"T","BUS_STOP_ORDER_NUM":9,"Current_Stop":"Čierny most","BUS_STOP_NUM_1":4,"BUS_STOP_SUB_NUM_1":0,"Next_Stop":"Divadlo Jonáša Záborského","BUS_STOP_NUM_2":205,"BUS_STOP_SUB_NUM_2":0,"PLANNED_ROAD":461,"REAL_ROAD":314,"DELAY":-187,"VEHICLE_NUMBER":357,"Order_In_Json_Id":21,"Type":"MHD","Current_Time":1611681608796,"CHANGE_OF_DELAY":2,"Street":"Pavlovičovo námestie","isOnStop":false}},{"type":"Feature","geometry":{"type":"Point","coordinates":[21.24639,48.9902]},"properties":{"ROUTE_NUMBER":32,"PLANNED_START":"17:57","DIRECTION":"P","BUS_STOP_ORDER_NUM":6,"Current_Stop":"Veľká pošta","BUS_STOP_NUM_1":3,"BUS_STOP_SUB_NUM_1":1,"Next_Stop":"Čierny most","BUS_STOP_NUM_2":4,"BUS_STOP_SUB_NUM_2":1,"PLANNED_ROAD":220,"REAL_ROAD":189,"DELAY":67,"VEHICLE_NUMBER":350,"Order_In_Json_Id":24,"Type":"MHD","Current_Time":1611681608796,"CHANGE_OF_DELAY":6,"isOnStop":false}},{"type":"Feature","geometry":{"type":"Point","coordinates":[21.22491,49.00147]},"properties":{"ROUTE_NUMBER":4,"PLANNED_START":"17:46","DIRECTION":"T","BUS_STOP_ORDER_NUM":13,"Current_Stop":"Poliklinika","BUS_STOP_NUM_1":156,"BUS_STOP_SUB_NUM_1":0,"Next_Stop":"Clementisova","BUS_STOP_NUM_2":187,"BUS_STOP_SUB_NUM_2":0,"PLANNED_ROAD":760,"REAL_ROAD":688,"DELAY":61,"VEHICLE_NUMBER":746,"Order_In_Json_Id":18,"Type":"MHD","Current_Time":1611681608796,"CHANGE_OF_DELAY":20,"Street":"Októbrová","isOnStop":false}},{"type":"Feature","geometry":{"type":"Point","coordinates":[21.23695,49.0137]},"properties":{"ROUTE_NUMBER":22,"PLANNED_START":"18:00","DIRECTION":"P","BUS_STOP_ORDER_NUM":5,"Current_Stop":"Rázc.Šidlovec","BUS_STOP_NUM_1":129,"BUS_STOP_SUB_NUM_1":1,"Next_Stop":"Pod Skalkou","BUS_STOP_NUM_2":128,"BUS_STOP_SUB_NUM_2":1,"PLANNED_ROAD":744,"REAL_ROAD":744,"DELAY":-30,"VEHICLE_NUMBER":3431,"Order_In_Json_Id":25,"Type":"MHD","Current_Time":1611681608796,"CHANGE_OF_DELAY":-4,"Street":"Jesenského","isOnStop":false}},{"type":"Feature","geometry":{"type":"Point","coordinates":[21.28938,48.94592]},"properties":{"ROUTE_NUMBER":14,"PLANNED_START":"18:05","DIRECTION":"T","BUS_STOP_ORDER_NUM":1,"Current_Stop":"Záborské","BUS_STOP_NUM_1":19,"BUS_STOP_SUB_NUM_1":0,"Next_Stop":"Záborské-stred","BUS_STOP_NUM_2":18,"BUS_STOP_SUB_NUM_2":0,"PLANNED_ROAD":295,"REAL_ROAD":295,"DELAY":-33,"VEHICLE_NUMBER":403,"Order_In_Json_Id":26,"Type":"MHD","Current_Time":1611681608796,"CHANGE_OF_DELAY":-18,"isOnStop":false}},{"type":"Feature","geometry":{"type":"Point","coordinates":[21.2713,48.99189]},"properties":{"ROUTE_NUMBER":36,"PLANNED_START":"17:53","DIRECTION":"P","BUS_STOP_ORDER_NUM":8,"Current_Stop":"Vansovej","BUS_STOP_NUM_1":45,"BUS_STOP_SUB_NUM_1":1,"Next_Stop":"Pod Šalgovíkom","BUS_STOP_NUM_2":46,"BUS_STOP_SUB_NUM_2":2,"PLANNED_ROAD":352,"REAL_ROAD":21,"DELAY":30,"VEHICLE_NUMBER":367,"Order_In_Json_Id":28,"Type":"MHD","Current_Time":1611681608796,"CHANGE_OF_DELAY":-10,"isOnStop":false}},{"type":"Feature","geometry":{"type":"Point","coordinates":[21.25047,48.98172]},"properties":{"ROUTE_NUMBER":8,"PLANNED_START":"17:55","DIRECTION":"T","BUS_STOP_ORDER_NUM":7,"Current_Stop":"Škára","BUS_STOP_NUM_1":529,"BUS_STOP_SUB_NUM_1":0,"Next_Stop":"Železničná stanica","BUS_STOP_NUM_2":35,"BUS_STOP_SUB_NUM_2":0,"PLANNED_ROAD":850,"REAL_ROAD":525,"DELAY":-142,"VEHICLE_NUMBER":729,"Order_In_Json_Id":3,"Type":"MHD","Current_Time":1611681668832,"CHANGE_OF_DELAY":-7,"isOnStop":false}},{"type":"Feature","geometry":{"type":"Point","coordinates":[21.24291,48.99466]},"properties":{"ROUTE_NUMBER":28,"PLANNED_START":"17:50","DIRECTION":"T","BUS_STOP_ORDER_NUM":10,"Current_Stop":"Divadlo Jonáša Záborského","BUS_STOP_NUM_1":205,"BUS_STOP_SUB_NUM_1":0,"Next_Stop":"Na Hlavnej","BUS_STOP_NUM_2":2,"BUS_STOP_SUB_NUM_2":0,"PLANNED_ROAD":290,"REAL_ROAD":174,"DELAY":-182,"VEHICLE_NUMBER":357,"Order_In_Json_Id":21,"Type":"MHD","Current_Time":1611681668832,"CHANGE_OF_DELAY":8,"isOnStop":false}},{"type":"Feature","geometry":{"type":"Point","coordinates":[21.22188,49.0025]},"properties":{"ROUTE_NUMBER":8,"PLANNED_START":"18:00","DIRECTION":"P","BUS_STOP_ORDER_NUM":6,"Current_Stop":"Volgogradská","BUS_STOP_NUM_1":188,"BUS_STOP_SUB_NUM_1":1,"Next_Stop":"Clementisova","BUS_STOP_NUM_2":187,"BUS_STOP_SUB_NUM_2":1,"PLANNED_ROAD":350,"REAL_ROAD":175,"DELAY":-65,"VEHICLE_NUMBER":743,"Order_In_Json_Id":20,"Type":"MHD","Current_Time":1611681668832,"CHANGE_OF_DELAY":-3,"Street":"Marka Čulena","isOnStop":false}},{"type":"Feature","geometry":{"type":"Point","coordinates":[21.24864,48.98911]},"properties":{"ROUTE_NUMBER":32,"PLANNED_START":"17:57","DIRECTION":"P","BUS_STOP_ORDER_NUM":7,"Current_Stop":"Čierny most","BUS_STOP_NUM_1":4,"BUS_STOP_SUB_NUM_1":1,"Next_Stop":"Rusínska","BUS_STOP_NUM_2":204,"BUS_STOP_SUB_NUM_2":0,"PLANNED_ROAD":1230,"REAL_ROAD":274,"DELAY":60,"VEHICLE_NUMBER":350,"Order_In_Json_Id":24,"Type":"MHD","Current_Time":1611681668832,"CHANGE_OF_DELAY":-2,"Street":"Škultétyho","isOnStop":false}},{"type":"Feature","geometry":{"type":"Point","coordinates":[21.23768,49.00773]},"properties":{"ROUTE_NUMBER":22,"PLANNED_START":"18:00","DIRECTION":"P","BUS_STOP_ORDER_NUM":7,"Current_Stop":"Mičurinova","BUS_STOP_NUM_1":127,"BUS_STOP_SUB_NUM_1":1,"Next_Stop":"Sabinovská","BUS_STOP_NUM_2":126,"BUS_STOP_SUB_NUM_2":1,"PLANNED_ROAD":626,"REAL_ROAD":375,"DELAY":-5,"VEHICLE_NUMBER":3431,"Order_In_Json_Id":25,"Type":"MHD","Current_Time":1611681668832,"CHANGE_OF_DELAY":6,"Street":"Majakovského","isOnStop":false}},{"type":"Feature","geometry":{"type":"Point","coordinates":[21.23065,49.02281]},"properties":{"ROUTE_NUMBER":12,"PLANNED_START":"17:28","DIRECTION":"T","BUS_STOP_ORDER_NUM":27,"Current_Stop":"Bajkalská","BUS_STOP_NUM_1":194,"BUS_STOP_SUB_NUM_1":1,"Next_Stop":"Veterinárna nemocnica","BUS_STOP_NUM_2":516,"BUS_STOP_SUB_NUM_2":0,"PLANNED_ROAD":373,"REAL_ROAD":96,"DELAY":-25,"VEHICLE_NUMBER":392,"Order_In_Json_Id":1,"Type":"MHD","Current_Time":1611681683832,"CHANGE_OF_DELAY":7,"Street":"Prostějovská","isOnStop":false}},{"type":"Feature","geometry":{"type":"Point","coordinates":[21.26965,48.9966]},"properties":{"ROUTE_NUMBER":8,"PLANNED_START":"17:40","DIRECTION":"P","BUS_STOP_ORDER_NUM":18,"Current_Stop":"Jurkovičova","BUS_STOP_NUM_1":40,"BUS_STOP_SUB_NUM_1":1,"Next_Stop":"Karpatská","BUS_STOP_NUM_2":41,"BUS_STOP_SUB_NUM_2":1,"PLANNED_ROAD":353,"REAL_ROAD":282,"DELAY":-11,"VEHICLE_NUMBER":727,"Order_In_Json_Id":5,"Type":"MHD","Current_Time":1611681683832,"CHANGE_OF_DELAY":-7,"isOnStop":false}},{"type":"Feature","geometry":{"type":"Point","coordinates":[21.22079,49.00313]},"properties":{"ROUTE_NUMBER":4,"PLANNED_START":"17:46","DIRECTION":"T","BUS_STOP_ORDER_NUM":14,"Current_Stop":"Clementisova","BUS_STOP_NUM_1":187,"BUS_STOP_SUB_NUM_1":0,"Next_Stop":"Volgogradská","BUS_STOP_NUM_2":188,"BUS_STOP_SUB_NUM_2":0,"PLANNED_ROAD":450,"REAL_ROAD":306,"DELAY":53,"VEHICLE_NUMBER":746,"Order_In_Json_Id":17,"Type":"MHD","Current_Time":1611681683832,"CHANGE_OF_DELAY":-2,"Street":"Levočská","isOnStop":false}},{"type":"Feature","geometry":{"type":"Point","coordinates":[21.21165,49.03411]},"properties":{"ROUTE_NUMBER":45,"PLANNED_START":"18:00","DIRECTION":"P","BUS_STOP_ORDER_NUM":6,"Current_Stop":"Pivovar","BUS_STOP_NUM_1":133,"BUS_STOP_SUB_NUM_1":1,"Next_Stop":"Bikoš","BUS_STOP_NUM_2":131,"BUS_STOP_SUB_NUM_2":1,"PLANNED_ROAD":2190,"REAL_ROAD":1249,"DELAY":-86,"VEHICLE_NUMBER":344,"Order_In_Json_Id":2,"Type":"MHD","Current_Time":1611681698843,"CHANGE_OF_DELAY":10,"isOnStop":false}},{"type":"Feature","geometry":{"type":"Point","coordinates":[21.23061,49.02115]},"properties":{"ROUTE_NUMBER":12,"PLANNED_START":"17:28","DIRECTION":"T","BUS_STOP_ORDER_NUM":27,"Current_Stop":"Bajkalská","BUS_STOP_NUM_1":194,"BUS_STOP_SUB_NUM_1":1,"Next_Stop":"Veterinárna nemocnica","BUS_STOP_NUM_2":516,"BUS_STOP_SUB_NUM_2":0,"PLANNED_ROAD":373,"REAL_ROAD":283,"DELAY":-27,"VEHICLE_NUMBER":392,"Order_In_Json_Id":2,"Type":"MHD","Current_Time":1611681713852,"CHANGE_OF_DELAY":0,"Street":"Šmeralova","isOnStop":false}},{"type":"Feature","geometry":{"type":"Point","coordinates":[21.2336,48.99246]},"properties":{"ROUTE_NUMBER":2,"PLANNED_START":"17:50","DIRECTION":"P","BUS_STOP_ORDER_NUM":12,"Current_Stop":"Prešovská univerzita","BUS_STOP_NUM_1":199,"BUS_STOP_SUB_NUM_1":0,"Next_Stop":"Duchnovičovo nám.","BUS_STOP_NUM_2":198,"BUS_STOP_SUB_NUM_2":0,"PLANNED_ROAD":439,"REAL_ROAD":280,"DELAY":-44,"VEHICLE_NUMBER":740,"Order_In_Json_Id":15,"Type":"MHD","Current_Time":1611681713852,"CHANGE_OF_DELAY":0,"Street":"17. novembra","isOnStop":false}},{"type":"Feature","geometry":{"type":"Point","coordinates":[21.22936,48.99572]},"properties":{"ROUTE_NUMBER":38,"PLANNED_START":"17:48","DIRECTION":"T","BUS_STOP_ORDER_NUM":12,"Current_Stop":"Nám.mládeže","BUS_STOP_NUM_1":197,"BUS_STOP_SUB_NUM_1":1,"Next_Stop":"Obrancov mieru","BUS_STOP_NUM_2":195,"BUS_STOP_SUB_NUM_2":2,"PLANNED_ROAD":305,"REAL_ROAD":30,"DELAY":-128,"VEHICLE_NUMBER":725,"Order_In_Json_Id":17,"Type":"MHD","Current_Time":1611681713852,"CHANGE_OF_DELAY":-19,"Street":"Fučíkova","isOnStop":false}},{"type":"Feature","geometry":{"type":"Point","coordinates":[21.26533,48.97743]},"properties":{"ROUTE_NUMBER":1,"PLANNED_START":"18:05","DIRECTION":"T","BUS_STOP_ORDER_NUM":3,"Current_Stop":"Bohúňova","BUS_STOP_NUM_1":54,"BUS_STOP_SUB_NUM_1":0,"Next_Stop":"Solivarská","BUS_STOP_NUM_2":53,"BUS_STOP_SUB_NUM_2":0,"PLANNED_ROAD":480,"REAL_ROAD":480,"DELAY":-13,"VEHICLE_NUMBER":739,"Order_In_Json_Id":19,"Type":"MHD","Current_Time":1611681713852,"CHANGE_OF_DELAY":6,"Street":"Jiráskova","isOnStop":false}},{"type":"Feature","geometry":{"type":"Point","coordinates":[21.27118,49.00074]},"properties":{"ROUTE_NUMBER":38,"PLANNED_START":"18:08","DIRECTION":"T","BUS_STOP_ORDER_NUM":1,"Current_Stop":"Sibírska","BUS_STOP_NUM_1":36,"BUS_STOP_SUB_NUM_1":0,"Next_Stop":"Karpatská","BUS_STOP_NUM_2":41,"BUS_STOP_SUB_NUM_2":0,"PLANNED_ROAD":716,"REAL_ROAD":130,"DELAY":-7,"VEHICLE_NUMBER":722,"Order_In_Json_Id":1,"Type":"MHD","Current_Time":1611681728856,"CHANGE_OF_DELAY":6,"Street":"Vihorlatská","isOnStop":false}},{"type":"Feature","geometry":{"type":"Point","coordinates":[21.31655,49.01745]},"properties":{"ROUTE_NUMBER":13,"PLANNED_START":"18:01","DIRECTION":"T","BUS_STOP_ORDER_NUM":5,"Current_Stop":"Kamence","BUS_STOP_NUM_1":546,"BUS_STOP_SUB_NUM_1":0,"Next_Stop":"Herlianska","BUS_STOP_NUM_2":196,"BUS_STOP_SUB_NUM_2":0,"PLANNED_ROAD":2000,"REAL_ROAD":35,"DELAY":-84,"VEHICLE_NUMBER":395,"Order_In_Json_Id":7,"Type":"MHD","Current_Time":1611681728856,"CHANGE_OF_DELAY":-11,"isOnStop":false}},{"type":"Feature","geometry":{"type":"Point","coordinates":[21.26691,48.99022]},"properties":{"ROUTE_NUMBER":4,"PLANNED_START":"18:06","DIRECTION":"T","BUS_STOP_ORDER_NUM":2,"Current_Stop":"Vansovej","BUS_STOP_NUM_1":45,"BUS_STOP_SUB_NUM_1":0,"Next_Stop":"L.Novomeského","BUS_STOP_NUM_2":44,"BUS_STOP_SUB_NUM_2":0,"PLANNED_ROAD":510,"REAL_ROAD":510,"DELAY":-34,"VEHICLE_NUMBER":745,"Order_In_Json_Id":9,"Type":"MHD","Current_Time":1611681728856,"CHANGE_OF_DELAY":-6,"Street":"Arm. gen. Svobodu","isOnStop":false}},{"type":"Feature","geometry":{"type":"Point","coordinates":[21.2665,48.99236]},"properties":{"ROUTE_NUMBER":22,"PLANNED_START":"18:05","DIRECTION":"T","BUS_STOP_ORDER_NUM":3,"Current_Stop":"L.Novomeského","BUS_STOP_NUM_1":44,"BUS_STOP_SUB_NUM_1":0,"Next_Stop":"Vyšné lúky","BUS_STOP_NUM_2":513,"BUS_STOP_SUB_NUM_2":0,"PLANNED_ROAD":455,"REAL_ROAD":281,"DELAY":-19,"VEHICLE_NUMBER":396,"Order_In_Json_Id":12,"Type":"MHD","Current_Time":1611681728856,"CHANGE_OF_DELAY":22,"Street":"Rusínska","isOnStop":false}},{"type":"Feature","geometry":{"type":"Point","coordinates":[21.23848,49.00542]},"properties":{"ROUTE_NUMBER":22,"PLANNED_START":"18:00","DIRECTION":"P","BUS_STOP_ORDER_NUM":7,"Current_Stop":"Mičurinova","BUS_STOP_NUM_1":127,"BUS_STOP_SUB_NUM_1":1,"Next_Stop":"Sabinovská","BUS_STOP_NUM_2":126,"BUS_STOP_SUB_NUM_2":1,"PLANNED_ROAD":626,"REAL_ROAD":626,"DELAY":-34,"VEHICLE_NUMBER":3431,"Order_In_Json_Id":26,"Type":"MHD","Current_Time":1611681728856,"CHANGE_OF_DELAY":-15,"Street":"Komenského","isOnStop":false}},{"type":"Feature","geometry":{"type":"Point","coordinates":[21.24978,48.98367]},"properties":{"ROUTE_NUMBER":10,"PLANNED_START":"17:59","DIRECTION":"P","BUS_STOP_ORDER_NUM":7,"Current_Stop":"Čierny most","BUS_STOP_NUM_1":4,"BUS_STOP_SUB_NUM_1":1,"Next_Stop":"Železničná stanica","BUS_STOP_NUM_2":35,"BUS_STOP_SUB_NUM_2":1,"PLANNED_ROAD":790,"REAL_ROAD":732,"DELAY":7,"VEHICLE_NUMBER":400,"Order_In_Json_Id":29,"Type":"MHD","Current_Time":1611681728856,"CHANGE_OF_DELAY":2,"isOnStop":false}},{"type":"Feature","geometry":{"type":"Point","coordinates":[21.24967,48.9847]},"properties":{"ROUTE_NUMBER":8,"PLANNED_START":"17:55","DIRECTION":"T","BUS_STOP_ORDER_NUM":8,"Current_Stop":"Železničná stanica","BUS_STOP_NUM_1":35,"BUS_STOP_SUB_NUM_1":0,"Next_Stop":"Čierny most","BUS_STOP_NUM_2":4,"BUS_STOP_SUB_NUM_2":0,"PLANNED_ROAD":650,"REAL_ROAD":70,"DELAY":-148,"VEHICLE_NUMBER":729,"Order_In_Json_Id":4,"Type":"MHD","Current_Time":1611681743865,"CHANGE_OF_DELAY":-2,"isOnStop":false}},{"type":"Feature","geometry":{"type":"Point","coordinates":[21.24092,48.95479]},"properties":{"ROUTE_NUMBER":24,"PLANNED_START":"18:06","DIRECTION":"T","BUS_STOP_ORDER_NUM":1,"Current_Stop":"Haniska","BUS_STOP_NUM_1":13,"BUS_STOP_SUB_NUM_1":0,"Next_Stop":"Lemešianska","BUS_STOP_NUM_2":12,"BUS_STOP_SUB_NUM_2":0,"PLANNED_ROAD":262,"REAL_ROAD":214,"DELAY":-119,"VEHICLE_NUMBER":389,"Order_In_Json_Id":11,"Type":"MHD","Current_Time":1611681743865,"CHANGE_OF_DELAY":16,"isOnStop":false}},{"type":"Feature","geometry":{"type":"Point","coordinates":[21.22079,49.00364]},"properties":{"ROUTE_NUMBER":29,"PLANNED_START":"18:03","DIRECTION":"P","BUS_STOP_ORDER_NUM":5,"Current_Stop":"Nám.Kráľ.pokoja","BUS_STOP_NUM_1":189,"BUS_STOP_SUB_NUM_1":1,"Next_Stop":"Volgogradská","BUS_STOP_NUM_2":188,"BUS_STOP_SUB_NUM_2":1,"PLANNED_ROAD":387,"REAL_ROAD":387,"DELAY":9,"VEHICLE_NUMBER":354,"Order_In_Json_Id":13,"Type":"MHD","Current_Time":1611681743865,"CHANGE_OF_DELAY":5,"isOnStop":false}},{"type":"Feature","geometry":{"type":"Point","coordinates":[21.23251,48.99376]},"properties":{"ROUTE_NUMBER":2,"PLANNED_START":"17:50","DIRECTION":"P","BUS_STOP_ORDER_NUM":12,"Current_Stop":"Prešovská univerzita","BUS_STOP_NUM_1":199,"BUS_STOP_SUB_NUM_1":0,"Next_Stop":"Duchnovičovo nám.","BUS_STOP_NUM_2":198,"BUS_STOP_SUB_NUM_2":0,"PLANNED_ROAD":439,"REAL_ROAD":439,"DELAY":-43,"VEHICLE_NUMBER":740,"Order_In_Json_Id":17,"Type":"MHD","Current_Time":1611681743865,"CHANGE_OF_DELAY":0,"Street":"Duchnovičovo námestie","isOnStop":false}},{"type":"Feature","geometry":{"type":"Point","coordinates":[21.24982,48.98436]},"properties":{"ROUTE_NUMBER":14,"PLANNED_START":"18:06","DIRECTION":"T","BUS_STOP_ORDER_NUM":1,"Current_Stop":"Železničná stanica","BUS_STOP_NUM_1":35,"BUS_STOP_SUB_NUM_1":0,"Next_Stop":"Čierny most","BUS_STOP_NUM_2":4,"BUS_STOP_SUB_NUM_2":0,"PLANNED_ROAD":650,"REAL_ROAD":59,"DELAY":-145,"VEHICLE_NUMBER":391,"Order_In_Json_Id":16,"Type":"MHD","Current_Time":1611681743865,"CHANGE_OF_DELAY":-7,"isOnStop":false}},{"type":"Feature","geometry":{"type":"Point","coordinates":[21.26464,48.97749]},"properties":{"ROUTE_NUMBER":1,"PLANNED_START":"18:05","DIRECTION":"T","BUS_STOP_ORDER_NUM":4,"Current_Stop":"Solivarská","BUS_STOP_NUM_1":53,"BUS_STOP_SUB_NUM_1":0,"Next_Stop":"Škára","BUS_STOP_NUM_2":529,"BUS_STOP_SUB_NUM_2":0,"PLANNED_ROAD":940,"REAL_ROAD":42,"DELAY":-37,"VEHICLE_NUMBER":739,"Order_In_Json_Id":21,"Type":"MHD","Current_Time":1611681743865,"CHANGE_OF_DELAY":-10,"Street":"Jiráskova","isOnStop":false}},{"type":"Feature","geometry":{"type":"Point","coordinates":[21.24003,48.9988]},"properties":{"ROUTE_NUMBER":28,"PLANNED_START":"17:50","DIRECTION":"T","BUS_STOP_ORDER_NUM":11,"Current_Stop":"Na Hlavnej","BUS_STOP_NUM_1":2,"BUS_STOP_SUB_NUM_1":0,"Next_Stop":"Trojica","BUS_STOP_NUM_2":1,"BUS_STOP_SUB_NUM_2":0,"PLANNED_ROAD":560,"REAL_ROAD":386,"DELAY":-146,"VEHICLE_NUMBER":357,"Order_In_Json_Id":23,"Type":"MHD","Current_Time":1611681743865,"CHANGE_OF_DELAY":9,"Street":"Šarišská","isOnStop":false}},{"type":"Feature","geometry":{"type":"Point","coordinates":[21.27091,48.95054]},"properties":{"ROUTE_NUMBER":14,"PLANNED_START":"18:05","DIRECTION":"T","BUS_STOP_ORDER_NUM":3,"Current_Stop":"Rázc.Záborské","BUS_STOP_NUM_1":17,"BUS_STOP_SUB_NUM_1":0,"Next_Stop":"Priemyselný park Záborské","BUS_STOP_NUM_2":537,"BUS_STOP_SUB_NUM_2":0,"PLANNED_ROAD":3400,"REAL_ROAD":1418,"DELAY":11,"VEHICLE_NUMBER":403,"Order_In_Json_Id":27,"Type":"MHD","Current_Time":1611681743865,"CHANGE_OF_DELAY":2,"isOnStop":false}},{"type":"Feature","geometry":{"type":"Point","coordinates":[21.22345,49.02854]},"properties":{"ROUTE_NUMBER":45,"PLANNED_START":"18:00","DIRECTION":"P","BUS_STOP_ORDER_NUM":7,"Current_Stop":"Bikoš","BUS_STOP_NUM_1":131,"BUS_STOP_SUB_NUM_1":1,"Next_Stop":"Rázc.Šidlovec","BUS_STOP_NUM_2":129,"BUS_STOP_SUB_NUM_2":1,"PLANNED_ROAD":1550,"REAL_ROAD":246,"DELAY":-47,"VEHICLE_NUMBER":344,"Order_In_Json_Id":3,"Type":"MHD","Current_Time":1611681773882,"CHANGE_OF_DELAY":12,"isOnStop":false}},{"type":"Feature","geometry":{"type":"Point","coordinates":[21.27144,49.00078]},"properties":{"ROUTE_NUMBER":8,"PLANNED_START":"17:40","DIRECTION":"P","BUS_STOP_ORDER_NUM":19,"Current_Stop":"Karpatská","BUS_STOP_NUM_1":41,"BUS_STOP_SUB_NUM_1":1,"Next_Stop":"Sibírska","BUS_STOP_NUM_2":36,"BUS_STOP_SUB_NUM_2":1,"PLANNED_ROAD":560,"REAL_ROAD":498,"DELAY":12,"VEHICLE_NUMBER":727,"Order_In_Json_Id":6,"Type":"MHD","Current_Time":1611681773882,"CHANGE_OF_DELAY":2,"Street":"Vihorlatská","isOnStop":false}},{"type":"Feature","geometry":{"type":"Point","coordinates":[21.22071,49.00311]},"properties":{"ROUTE_NUMBER":29,"PLANNED_START":"18:03","DIRECTION":"P","BUS_STOP_ORDER_NUM":6,"Current_Stop":"Volgogradská","BUS_STOP_NUM_1":188,"BUS_STOP_SUB_NUM_1":1,"Next_Stop":"Levočská","BUS_STOP_NUM_2":157,"BUS_STOP_SUB_NUM_2":1,"PLANNED_ROAD":510,"REAL_ROAD":64,"DELAY":2,"VEHICLE_NUMBER":354,"Order_In_Json_Id":13,"Type":"MHD","Current_Time":1611681773882,"CHANGE_OF_DELAY":2,"Street":"Levočská","isOnStop":false}},{"type":"Feature","geometry":{"type":"Point","coordinates":[21.24382,48.9872]},"properties":{"ROUTE_NUMBER":38,"PLANNED_START":"17:55","DIRECTION":"P","BUS_STOP_ORDER_NUM":11,"Current_Stop":"Škultétyho","BUS_STOP_NUM_1":25,"BUS_STOP_SUB_NUM_1":1,"Next_Stop":"Železničná stanica","BUS_STOP_NUM_2":35,"BUS_STOP_SUB_NUM_2":1,"PLANNED_ROAD":1110,"REAL_ROAD":182,"DELAY":10,"VEHICLE_NUMBER":744,"Order_In_Json_Id":14,"Type":"MHD","Current_Time":1611681773882,"CHANGE_OF_DELAY":1,"isOnStop":false}},{"type":"Feature","geometry":{"type":"Point","coordinates":[21.22773,48.99856]},"properties":{"ROUTE_NUMBER":38,"PLANNED_START":"17:48","DIRECTION":"T","BUS_STOP_ORDER_NUM":13,"Current_Stop":"Obrancov mieru","BUS_STOP_NUM_1":195,"BUS_STOP_SUB_NUM_1":2,"Next_Stop":"Clementisova","BUS_STOP_NUM_2":187,"BUS_STOP_SUB_NUM_2":0,"PLANNED_ROAD":510,"REAL_ROAD":74,"DELAY":-118,"VEHICLE_NUMBER":725,"Order_In_Json_Id":19,"Type":"MHD","Current_Time":1611681773882,"CHANGE_OF_DELAY":1,"Street":"Obrancov mieru","isOnStop":false}},{"type":"Feature","geometry":{"type":"Point","coordinates":[21.2392,49.00034]},"properties":{"ROUTE_NUMBER":28,"PLANNED_START":"17:50","DIRECTION":"T","BUS_STOP_ORDER_NUM":12,"Current_Stop":"Trojica","BUS_STOP_NUM_1":1,"BUS_STOP_SUB_NUM_1":0,"Next_Stop":"Duklianska","BUS_STOP_NUM_2":78,"BUS_STOP_SUB_NUM_2":0,"PLANNED_ROAD":562,"REAL_ROAD":20,"DELAY":-136,"VEHICLE_NUMBER":357,"Order_In_Json_Id":23,"Type":"MHD","Current_Time":1611681773882,"CHANGE_OF_DELAY":-1,"Street":"Suchomlynská","isOnStop":false}},{"type":"Feature","geometry":{"type":"Point","coordinates":[21.27353,48.98221]},"properties":{"ROUTE_NUMBER":19,"PLANNED_START":"18:07","DIRECTION":"T","BUS_STOP_ORDER_NUM":2,"Current_Stop":"Kukučínova","BUS_STOP_NUM_1":52,"BUS_STOP_SUB_NUM_1":0,"Next_Stop":"Kysucká","BUS_STOP_NUM_2":51,"BUS_STOP_SUB_NUM_2":0,"PLANNED_ROAD":371,"REAL_ROAD":103,"DELAY":-60,"VEHICLE_NUMBER":379,"Order_In_Json_Id":28,"Type":"MHD","Current_Time":1611681773882,"CHANGE_OF_DELAY":-2,"Street":"Lesnícka","isOnStop":false}},{"type":"Feature","geometry":{"type":"Point","coordinates":[21.22637,49.02808]},"properties":{"ROUTE_NUMBER":45,"PLANNED_START":"18:00","DIRECTION":"P","BUS_STOP_ORDER_NUM":7,"Current_Stop":"Bikoš","BUS_STOP_NUM_1":131,"BUS_STOP_SUB_NUM_1":1,"Next_Stop":"Rázc.Šidlovec","BUS_STOP_NUM_2":129,"BUS_STOP_SUB_NUM_2":1,"PLANNED_ROAD":1550,"REAL_ROAD":455,"DELAY":-38,"VEHICLE_NUMBER":344,"Order_In_Json_Id":3,"Type":"MHD","Current_Time":1611681788895,"CHANGE_OF_DELAY":9,"isOnStop":false}},{"type":"Feature","geometry":{"type":"Point","coordinates":[21.26957,48.99972]},"properties":{"ROUTE_NUMBER":38,"PLANNED_START":"18:08","DIRECTION":"T","BUS_STOP_ORDER_NUM":1,"Current_Stop":"Sibírska","BUS_STOP_NUM_1":36,"BUS_STOP_SUB_NUM_1":0,"Next_Stop":"Karpatská","BUS_STOP_NUM_2":41,"BUS_STOP_SUB_NUM_2":0,"PLANNED_ROAD":716,"REAL_ROAD":331,"DELAY":-32,"VEHICLE_NUMBER":722,"Order_In_Json_Id":1,"Type":"MHD","Current_Time":1611681788895,"CHANGE_OF_DELAY":0,"isOnStop":false}},{"type":"Feature","geometry":{"type":"Point","coordinates":[21.25143,48.98159]},"properties":{"ROUTE_NUMBER":4,"PLANNED_START":"17:50","DIRECTION":"P","BUS_STOP_ORDER_NUM":13,"Current_Stop":"Železničná stanica","BUS_STOP_NUM_1":35,"BUS_STOP_SUB_NUM_1":1,"Next_Stop":"Škára","BUS_STOP_NUM_2":529,"BUS_STOP_SUB_NUM_2":1,"PLANNED_ROAD":850,"REAL_ROAD":278,"DELAY":7,"VEHICLE_NUMBER":728,"Order_In_Json_Id":10,"Type":"MHD","Current_Time":1611681788895,"CHANGE_OF_DELAY":-1,"isOnStop":false}},{"type":"Feature","geometry":{"type":"Point","coordinates":[21.24058,48.9566]},"properties":{"ROUTE_NUMBER":24,"PLANNED_START":"18:06","DIRECTION":"T","BUS_STOP_ORDER_NUM":2,"Current_Stop":"Lemešianska","BUS_STOP_NUM_1":12,"BUS_STOP_SUB_NUM_1":0,"Next_Stop":"Priecestie","BUS_STOP_NUM_2":11,"BUS_STOP_SUB_NUM_2":0,"PLANNED_ROAD":237,"REAL_ROAD":142,"DELAY":-113,"VEHICLE_NUMBER":389,"Order_In_Json_Id":11,"Type":"MHD","Current_Time":1611681788895,"CHANGE_OF_DELAY":12,"isOnStop":false}},{"type":"Feature","geometry":{"type":"Point","coordinates":[21.249,48.98635]},"properties":{"ROUTE_NUMBER":14,"PLANNED_START":"18:06","DIRECTION":"T","BUS_STOP_ORDER_NUM":1,"Current_Stop":"Železničná stanica","BUS_STOP_NUM_1":35,"BUS_STOP_SUB_NUM_1":0,"Next_Stop":"Čierny most","BUS_STOP_NUM_2":4,"BUS_STOP_SUB_NUM_2":0,"PLANNED_ROAD":650,"REAL_ROAD":301,"DELAY":-147,"VEHICLE_NUMBER":391,"Order_In_Json_Id":16,"Type":"MHD","Current_Time":1611681788895,"CHANGE_OF_DELAY":1,"Street":"Radlinského","isOnStop":false}},{"type":"Feature","geometry":{"type":"Point","coordinates":[21.26982,48.99802]},"properties":{"ROUTE_NUMBER":38,"PLANNED_START":"18:08","DIRECTION":"T","BUS_STOP_ORDER_NUM":1,"Current_Stop":"Sibírska","BUS_STOP_NUM_1":36,"BUS_STOP_SUB_NUM_1":0,"Next_Stop":"Karpatská","BUS_STOP_NUM_2":41,"BUS_STOP_SUB_NUM_2":0,"PLANNED_ROAD":716,"REAL_ROAD":527,"DELAY":-18,"VEHICLE_NUMBER":722,"Order_In_Json_Id":1,"Type":"MHD","Current_Time":1611681803897,"CHANGE_OF_DELAY":14,"Street":"Exnárova","isOnStop":false}},{"type":"Feature","geometry":{"type":"Point","coordinates":[21.17545,48.98586]},"properties":{"ROUTE_NUMBER":18,"PLANNED_START":"18:09","DIRECTION":"P","BUS_STOP_ORDER_NUM":1,"Current_Stop":"Cemjata","BUS_STOP_NUM_1":171,"BUS_STOP_SUB_NUM_1":1,"Next_Stop":"Školské lesy","BUS_STOP_NUM_2":170,"BUS_STOP_SUB_NUM_2":1,"PLANNED_ROAD":479,"REAL_ROAD":268,"DELAY":-14,"VEHICLE_NUMBER":394,"Order_In_Json_Id":4,"Type":"MHD","Current_Time":1611681803897,"CHANGE_OF_DELAY":4,"Street":"Medvedia","isOnStop":false}},{"type":"Feature","geometry":{"type":"Point","coordinates":[21.31215,49.01979]},"properties":{"ROUTE_NUMBER":13,"PLANNED_START":"18:01","DIRECTION":"T","BUS_STOP_ORDER_NUM":5,"Current_Stop":"Kamence","BUS_STOP_NUM_1":546,"BUS_STOP_SUB_NUM_1":0,"Next_Stop":"Herlianska","BUS_STOP_NUM_2":196,"BUS_STOP_SUB_NUM_2":0,"PLANNED_ROAD":2000,"REAL_ROAD":529,"DELAY":-119,"VEHICLE_NUMBER":395,"Order_In_Json_Id":6,"Type":"MHD","Current_Time":1611681803897,"CHANGE_OF_DELAY":1,"isOnStop":false}},{"type":"Feature","geometry":{"type":"Point","coordinates":[21.22059,49.00222]},"properties":{"ROUTE_NUMBER":29,"PLANNED_START":"18:03","DIRECTION":"P","BUS_STOP_ORDER_NUM":6,"Current_Stop":"Volgogradská","BUS_STOP_NUM_1":188,"BUS_STOP_SUB_NUM_1":1,"Next_Stop":"Levočská","BUS_STOP_NUM_2":157,"BUS_STOP_SUB_NUM_2":1,"PLANNED_ROAD":510,"REAL_ROAD":157,"DELAY":-5,"VEHICLE_NUMBER":354,"Order_In_Json_Id":12,"Type":"MHD","Current_Time":1611681803897,"CHANGE_OF_DELAY":-12,"isOnStop":false}},{"type":"Feature","geometry":{"type":"Point","coordinates":[21.23137,48.99466]},"properties":{"ROUTE_NUMBER":2,"PLANNED_START":"17:50","DIRECTION":"P","BUS_STOP_ORDER_NUM":13,"Current_Stop":"Duchnovičovo nám.","BUS_STOP_NUM_1":198,"BUS_STOP_SUB_NUM_1":0,"Next_Stop":"Nám.mládeže","BUS_STOP_NUM_2":197,"BUS_STOP_SUB_NUM_2":1,"PLANNED_ROAD":395,"REAL_ROAD":158,"DELAY":-77,"VEHICLE_NUMBER":740,"Order_In_Json_Id":16,"Type":"MHD","Current_Time":1611681803897,"CHANGE_OF_DELAY":-8,"Street":"Gorkého","isOnStop":false}},{"type":"Feature","geometry":{"type":"Point","coordinates":[21.22676,49.00033]},"properties":{"ROUTE_NUMBER":38,"PLANNED_START":"17:48","DIRECTION":"T","BUS_STOP_ORDER_NUM":13,"Current_Stop":"Obrancov mieru","BUS_STOP_NUM_1":195,"BUS_STOP_SUB_NUM_1":2,"Next_Stop":"Clementisova","BUS_STOP_NUM_2":187,"BUS_STOP_SUB_NUM_2":0,"PLANNED_ROAD":510,"REAL_ROAD":278,"DELAY":-105,"VEHICLE_NUMBER":725,"Order_In_Json_Id":18,"Type":"MHD","Current_Time":1611681803897,"CHANGE_OF_DELAY":8,"Street":"Československej armády","isOnStop":false}},{"type":"Feature","geometry":{"type":"Point","coordinates":[21.23028,49.00021]},"properties":{"ROUTE_NUMBER":8,"PLANNED_START":"18:00","DIRECTION":"P","BUS_STOP_ORDER_NUM":7,"Current_Stop":"Clementisova","BUS_STOP_NUM_1":187,"BUS_STOP_SUB_NUM_1":1,"Next_Stop":"Poliklinika","BUS_STOP_NUM_2":156,"BUS_STOP_SUB_NUM_2":1,"PLANNED_ROAD":1005,"REAL_ROAD":537,"DELAY":-81,"VEHICLE_NUMBER":743,"Order_In_Json_Id":21,"Type":"MHD","Current_Time":1611681803897,"CHANGE_OF_DELAY":7,"Street":"Obrancov mieru","isOnStop":false}},{"type":"Feature","geometry":{"type":"Point","coordinates":[21.23699,49.02397]},"properties":{"ROUTE_NUMBER":12,"PLANNED_START":"17:28","DIRECTION":"T","BUS_STOP_ORDER_NUM":28,"Current_Stop":"Veterinárna nemocnica","BUS_STOP_NUM_1":516,"BUS_STOP_SUB_NUM_1":0,"Next_Stop":"Jánošíkova","BUS_STOP_NUM_2":146,"BUS_STOP_SUB_NUM_2":0,"PLANNED_ROAD":656,"REAL_ROAD":512,"DELAY":-32,"VEHICLE_NUMBER":392,"Order_In_Json_Id":2,"Type":"MHD","Current_Time":1611681818908,"CHANGE_OF_DELAY":7,"isOnStop":false}},{"type":"Feature","geometry":{"type":"Point","coordinates":[21.26243,48.99319]},"properties":{"ROUTE_NUMBER":22,"PLANNED_START":"18:05","DIRECTION":"T","BUS_STOP_ORDER_NUM":4,"Current_Stop":"Vyšné lúky","BUS_STOP_NUM_1":513,"BUS_STOP_SUB_NUM_1":0,"Next_Stop":"Nižné lúky","BUS_STOP_NUM_2":42,"BUS_STOP_SUB_NUM_2":0,"PLANNED_ROAD":545,"REAL_ROAD":272,"DELAY":-27,"VEHICLE_NUMBER":396,"Order_In_Json_Id":11,"Type":"MHD","Current_Time":1611681818908,"CHANGE_OF_DELAY":-1,"isOnStop":false}},{"type":"Feature","geometry":{"type":"Point","coordinates":[21.22986,48.99479]},