{"status":"ok","stops":[{"stopID":16825,"stopName":"\u010cKD","stopRawName":"Ve\u013ek\u00fd \u0160ari\u0161, \u010cKD","stopCity":"Ve\u013ek\u00fd \u0160ari\u0161","latitude":null,"longitude":null,"iconName":"stop","forUrbanPublicTransport":false,"forBusTransport":true,"forRail":false,"POIData":false,"platforms":[{"platformNumber":1,"latitude":49.04914855957031,"longitude":21.205270767211914,"tooltip":"Ve\u013ek\u00fd \u0160ari\u0161, \u010cKD"},{"platformNumber":2,"latitude":49.04914855957031,"longitude":21.205270767211914,"tooltip":"Ve\u013ek\u00fd \u0160ari\u0161, \u010cKD"}],"ezLines":["707431","707435","707436","707437","708403","708465"],"ezStopTypeName":"Navigation.StopType.Bus","passingLines":[],"subRegion":"SK;Pre\u0161ovsk\u00fd kraj;Pre\u0161ov"},{"stopID":16826,"stopName":"ACHP","stopRawName":"Ve\u013ek\u00fd \u0160ari\u0161, ACHP","stopCity":"Ve\u013ek\u00fd \u0160ari\u0161","latitude":null,"longitude":null,"iconName":"stop","forUrbanPublicTransport":false,"forBusTransport":true,"forRail":false,"POIData":false,"platforms":[{"platformNumber":1,"latitude":49.053070068359375,"longitude":21.20231056213379,"tooltip":"Ve\u013ek\u00fd \u0160ari\u0161, ACHP"},{"platformNumber":2,"latitude":49.053070068359375,"longitude":21.20231056213379,"tooltip":"Ve\u013ek\u00fd \u0160ari\u0161, ACHP"}],"ezLines":["707431","707435","707436","707437","708403","708465"],"ezStopTypeName":"Navigation.StopType.Bus","passingLines":[],"subRegion":"SK;Pre\u0161ovsk\u00fd kraj;Pre\u0161ov"},{"stopID":950001745,"stopName":"\u017eel.st.","stopRawName":"Ve\u013ek\u00fd \u0160ari\u0161, \u017eel.st.","stopCity":"Ve\u013ek\u00fd \u0160ari\u0161","latitude":null,"longitude":null,"iconName":"stop_train","forUrbanPublicTransport":false,"forBusTransport":false,"forRail":true,"POIData":false,"platforms":[{"platformNumber":0,"latitude":49.044834,"longitude":21.202956,"tooltip":"Ve\u013ek\u00fd \u0160ari\u0161, \u017eel.st."}],"ezLines":["Os 8500","Os 8501","Os 8502","Os 8503","Os 8504","Os 8505","Os 8506","Os 8507","Os 8510","Os 8511","Os 8514","Os 8515","Os 8516","Os 8517","Os 8518","Os 8519","Os 8520","Os 8521","Os 8522","Os 8523","Os 8524","Os 8525","Os 8526","Os 8527","Os 8528","Os 8529","Os 8530","Os 8533","Os 8536","Os 8553","Os 8586"],"ezStopTypeName":"Navigation.StopType.Train","passingLines":[],"subRegion":"SK;Pre\u0161ovsk\u00fd kraj;Pre\u0161ov"},{"stopID":1040000714,"stopName":"\u017delezni\u010dn\u00e1 stanica","stopRawName":"Ve\u013ek\u00fd \u0160ari\u0161,  \u017delezni\u010dn\u00e1 stanica","stopCity":"Ve\u013ek\u00fd \u0160ari\u0161","latitude":null,"longitude":null,"iconName":"stop_bikesharing","forUrbanPublicTransport":false,"forBusTransport":false,"forRail":false,"POIData":{"type":"bikesharing","name":"Ve\u013ek\u00fd \u0160ari\u0161,  \u017delezni\u010dn\u00e1 stanica","tooltip":"Ve\u013ek\u00fd \u0160ari\u0161,  \u017delezni\u010dn\u00e1 stanica, bikesharing","description":"https:\/\/www.verejnybicykel.sk","url":"Bikesharing ANTIK","stationID":null,"bikeDocks":null,"parkedBikes":null,"sponsorName":null,"sponsorLogo":null},"platforms":[{"platformNumber":1,"latitude":49.044565,"longitude":21.20232,"tooltip":"Ve\u013ek\u00fd \u0160ari\u0161,  \u017delezni\u010dn\u00e1 stanica; https:\/\/www.verejnybicykel.sk; Bikesharing ANTIK"}],"ezLines":[],"ezStopTypeName":"","passingLines":[],"subRegion":";;"},{"stopID":1030000243,"stopName":"Stani\u010dn\u00e1","stopRawName":"Ve\u013ek\u00fd \u0160ari\u0161, Stani\u010dn\u00e1","stopCity":"Ve\u013ek\u00fd \u0160ari\u0161","latitude":null,"longitude":null,"iconName":"stop_urban","forUrbanPublicTransport":true,"forBusTransport":false,"forRail":false,"POIData":false,"platforms":[{"platformNumber":1,"latitude":49.04425,"longitude":21.20268,"tooltip":"Stani\u010dn\u00e1"},{"platformNumber":2,"latitude":49.04425,"longitude":21.20268,"tooltip":"Stani\u010dn\u00e1"}],"ezLines":["14","45"],"ezStopTypeName":"Navigation.StopType.Urban","passingLines":{"1":[{"lineType":"bus","lines":["14","45"]}],"2":[{"lineType":"bus","lines":["45"]}]},"subRegion":"SK;Pre\u0161ovsk\u00fd kraj;Pre\u0161ov"},{"stopID":1313,"stopName":"r\u00e1zc.Kana\u0161","stopRawName":"Ve\u013ek\u00fd \u0160ari\u0161, r\u00e1zc.Kana\u0161","stopCity":"Ve\u013ek\u00fd \u0160ari\u0161","latitude":null,"longitude":null,"iconName":"stop","forUrbanPublicTransport":false,"forBusTransport":true,"forRail":false,"POIData":false,"platforms":[{"platformNumber":1,"latitude":49.04445,"longitude":21.20966,"tooltip":"Ve\u013ek\u00fd \u0160ari\u0161, r\u00e1zc.Kana\u0161"},{"platformNumber":2,"latitude":49.04303,"longitude":21.210661,"tooltip":"Ve\u013ek\u00fd \u0160ari\u0161, r\u00e1zc.Kana\u0161"}],"ezLines":["704403","707431","707432","707435","707436","707437","708403","708411","708465","710442","802435"],"ezStopTypeName":"Navigation.StopType.Bus","passingLines":[],"subRegion":"SK;Pre\u0161ovsk\u00fd kraj;Pre\u0161ov"},{"stopID":1030000076,"stopName":"Pivovar","stopRawName":"Ve\u013ek\u00fd \u0160ari\u0161, Pivovar","stopCity":"Ve\u013ek\u00fd \u0160ari\u0161","latitude":null,"longitude":null,"iconName":"stop_urban","forUrbanPublicTransport":true,"forBusTransport":false,"forRail":false,"POIData":false,"platforms":[{"platformNumber":1,"latitude":49.0434,"longitude":21.2089,"tooltip":"Pivovar"},{"platformNumber":2,"latitude":49.0434,"longitude":21.2089,"tooltip":"Pivovar"}],"ezLines":["14","45"],"ezStopTypeName":"Navigation.StopType.Urban","passingLines":{"1":[{"lineType":"bus","lines":["14","45"]}],"2":[{"lineType":"bus","lines":["45"]}]},"subRegion":"SK;Pre\u0161ovsk\u00fd kraj;Pre\u0161ov"},{"stopID":22955,"stopName":"pivovar","stopRawName":"Ve\u013ek\u00fd \u0160ari\u0161, pivovar","stopCity":"Ve\u013ek\u00fd \u0160ari\u0161","latitude":null,"longitude":null,"iconName":"stop","forUrbanPublicTransport":false,"forBusTransport":true,"forRail":false,"POIData":false,"platforms":[{"platformNumber":1,"latitude":49.0434,"longitude":21.20912,"tooltip":"Ve\u013ek\u00fd \u0160ari\u0161, pivovar"},{"platformNumber":2,"latitude":49.0434,"longitude":21.20912,"tooltip":"Ve\u013ek\u00fd \u0160ari\u0161, pivovar"}],"ezLines":["707430"],"ezStopTypeName":"Navigation.StopType.Bus","passingLines":[],"subRegion":"SK;Pre\u0161ovsk\u00fd kraj;Pre\u0161ov"},{"stopID":1030000162,"stopName":"Pod Sordokom","stopRawName":"Ve\u013ek\u00fd \u0160ari\u0161, Pod Sordokom","stopCity":"Ve\u013ek\u00fd \u0160ari\u0161","latitude":null,"longitude":null,"iconName":"stop_urban","forUrbanPublicTransport":true,"forBusTransport":false,"forRail":false,"POIData":false,"platforms":[{"platformNumber":1,"latitude":49.0438,"longitude":21.211,"tooltip":"Pod Sordokom"},{"platformNumber":2,"latitude":49.0438,"longitude":21.211,"tooltip":"Pod Sordokom"}],"ezLines":["14","45"],"ezStopTypeName":"Navigation.StopType.Urban","passingLines":{"1":[{"lineType":"bus","lines":["14","45"]}],"2":[{"lineType":"bus","lines":["14"]}]},"subRegion":"SK;Pre\u0161ovsk\u00fd kraj;Pre\u0161ov"},{"stopID":1030000821,"stopName":"Sordok","stopRawName":"Kana\u0161, Sordok","stopCity":"Kana\u0161","latitude":null,"longitude":null,"iconName":"stop_urban","forUrbanPublicTransport":true,"forBusTransport":false,"forRail":false,"POIData":false,"platforms":[{"platformNumber":1,"latitude":49.0438,"longitude":21.211,"tooltip":"Sordok"},{"platformNumber":2,"latitude":49.0438,"longitude":21.211,"tooltip":"Sordok"}],"ezLines":["14"],"ezStopTypeName":"Navigation.StopType.Urban","passingLines":{"1":[{"lineType":"bus","lines":["14"]}],"2":[{"lineType":"bus","lines":["14"]}]},"subRegion":"SK;Pre\u0161ovsk\u00fd kraj;Pre\u0161ov"},{"stopID":1040000717,"stopName":"Rybn\u00edky","stopRawName":"Ve\u013ek\u00fd \u0160ari\u0161,  Rybn\u00edky","stopCity":"Ve\u013ek\u00fd \u0160ari\u0161","latitude":null,"longitude":null,"iconName":"stop_bikesharing","forUrbanPublicTransport":false,"forBusTransport":false,"forRail":false,"POIData":{"type":"bikesharing","name":"Ve\u013ek\u00fd \u0160ari\u0161,  Rybn\u00edky","tooltip":"Ve\u013ek\u00fd \u0160ari\u0161,  Rybn\u00edky, bikesharing","description":"https:\/\/www.verejnybicykel.sk","url":"Bikesharing ANTIK","stationID":null,"bikeDocks":null,"parkedBikes":null,"sponsorName":null,"sponsorLogo":null},"platforms":[{"platformNumber":1,"latitude":49.052642,"longitude":21.193061,"tooltip":"Ve\u013ek\u00fd \u0160ari\u0161,  Rybn\u00edky; https:\/\/www.verejnybicykel.sk; Bikesharing ANTIK"}],"ezLines":[],"ezStopTypeName":"","passingLines":[],"subRegion":";;"},{"stopID":1030000214,"stopName":"\u0160ari\u0161 park","stopRawName":"Ve\u013ek\u00fd \u0160ari\u0161, \u0160ari\u0161 park","stopCity":"Ve\u013ek\u00fd \u0160ari\u0161","latitude":null,"longitude":null,"iconName":"stop_urban","forUrbanPublicTransport":true,"forBusTransport":false,"forRail":false,"POIData":false,"platforms":[{"platformNumber":1,"latitude":49.0409,"longitude":21.2131,"tooltip":"\u0160ari\u0161 park"},{"platformNumber":2,"latitude":49.0409,"longitude":21.2131,"tooltip":"\u0160ari\u0161 park"}],"ezLines":["14","45"],"ezStopTypeName":"Navigation.StopType.Urban","passingLines":{"1":[{"lineType":"bus","lines":["14","45"]}],"2":[{"lineType":"bus","lines":["14","45"]}]},"subRegion":"SK;Pre\u0161ovsk\u00fd kraj;Pre\u0161ov"},{"stopID":16966,"stopName":"Medulienka","stopRawName":"Ve\u013ek\u00fd \u0160ari\u0161, Medulienka","stopCity":"Ve\u013ek\u00fd \u0160ari\u0161","latitude":null,"longitude":null,"iconName":"stop","forUrbanPublicTransport":false,"forBusTransport":true,"forRail":false,"POIData":false,"platforms":[{"platformNumber":1,"latitude":49.039167,"longitude":21.199475,"tooltip":"Ve\u013ek\u00fd \u0160ari\u0161, Medulienka"},{"platformNumber":2,"latitude":49.039219,"longitude":21.199315,"tooltip":"Ve\u013ek\u00fd \u0160ari\u0161, Medulienka"}],"ezLines":["707430"],"ezStopTypeName":"Navigation.StopType.Bus","passingLines":[],"subRegion":"SK;Pre\u0161ovsk\u00fd kraj;Pre\u0161ov"},{"stopID":1030000078,"stopName":"Medulienka","stopRawName":"Ve\u013ek\u00fd \u0160ari\u0161, Medulienka","stopCity":"Ve\u013ek\u00fd \u0160ari\u0161","latitude":null,"longitude":null,"iconName":"stop_urban","forUrbanPublicTransport":true,"forBusTransport":false,"forRail":false,"POIData":false,"platforms":[{"platformNumber":1,"latitude":49.0392,"longitude":21.1993,"tooltip":"Medulienka"},{"platformNumber":2,"latitude":49.0392,"longitude":21.1993,"tooltip":"Medulienka"}],"ezLines":["14","45"],"ezStopTypeName":"Navigation.StopType.Urban","passingLines":{"1":[{"lineType":"bus","lines":["14","45"]}],"2":[{"lineType":"bus","lines":["45"]}]},"subRegion":"SK;Pre\u0161ovsk\u00fd kraj;Pre\u0161ov"},{"stopID":1030000163,"stopName":"Koz\u00ed ro\u017eok","stopRawName":"Kana\u0161, Koz\u00ed ro\u017eok","stopCity":"Kana\u0161","latitude":null,"longitude":null,"iconName":"stop_urban","forUrbanPublicTransport":true,"forBusTransport":false,"forRail":false,"POIData":false,"platforms":[{"platformNumber":1,"latitude":49.0478,"longitude":21.2241,"tooltip":"Koz\u00ed ro\u017eok"},{"platformNumber":2,"latitude":49.0478,"longitude":21.2241,"tooltip":"Koz\u00ed ro\u017eok"}],"ezLines":["14","45"],"ezStopTypeName":"Navigation.StopType.Urban","passingLines":{"1":[{"lineType":"bus","lines":["14","45"]}],"2":[{"lineType":"bus","lines":["14"]}]},"subRegion":"SK;Pre\u0161ovsk\u00fd kraj;Pre\u0161ov"},{"stopID":1030000079,"stopName":"N\u00e1m. sv. Jakuba","stopRawName":"Ve\u013ek\u00fd \u0160ari\u0161, N\u00e1m. sv. Jakuba","stopCity":"Ve\u013ek\u00fd \u0160ari\u0161","latitude":null,"longitude":null,"iconName":"stop_urban","forUrbanPublicTransport":true,"forBusTransport":false,"forRail":false,"POIData":false,"platforms":[{"platformNumber":1,"latitude":49.0392,"longitude":21.194,"tooltip":"N\u00e1m. sv. Jakuba"},{"platformNumber":2,"latitude":49.0392,"longitude":21.194,"tooltip":"N\u00e1m. sv. Jakuba"}],"ezLines":["14","45"],"ezStopTypeName":"Navigation.StopType.Urban","passingLines":{"1":[{"lineType":"bus","lines":["14","45"]}],"2":[{"lineType":"bus","lines":["45"]}]},"subRegion":"SK;Pre\u0161ovsk\u00fd kraj;Pre\u0161ov"},{"stopID":1030000081,"stopName":"Ve\u013ek\u00fd \u0160ari\u0161","stopRawName":"Ve\u013ek\u00fd \u0160ari\u0161, Ve\u013ek\u00fd \u0160ari\u0161","stopCity":"Ve\u013ek\u00fd \u0160ari\u0161","latitude":null,"longitude":null,"iconName":"stop_urban","forUrbanPublicTransport":true,"forBusTransport":false,"forRail":false,"POIData":false,"platforms":[{"platformNumber":1,"latitude":49.0421,"longitude":21.1888,"tooltip":"Ve\u013ek\u00fd \u0160ari\u0161"},{"platformNumber":2,"latitude":49.0421,"longitude":21.1888,"tooltip":"Ve\u013ek\u00fd \u0160ari\u0161"}],"ezLines":["14","21","45"],"ezStopTypeName":"Navigation.StopType.Urban","passingLines":{"1":[{"lineType":"bus","lines":["14","21","45"]}],"2":[{"lineType":"bus","lines":["21","45"]}]},"subRegion":"SK;Pre\u0161ovsk\u00fd kraj;Pre\u0161ov"},{"stopID":1030000217,"stopName":"Z\u0160 Ve\u013ek\u00fd \u0160ari\u0161","stopRawName":"Ve\u013ek\u00fd \u0160ari\u0161, Z\u0160 Ve\u013ek\u00fd \u0160ari\u0161","stopCity":"Ve\u013ek\u00fd \u0160ari\u0161","latitude":null,"longitude":null,"iconName":"stop_urban","forUrbanPublicTransport":true,"forBusTransport":false,"forRail":false,"POIData":false,"platforms":[{"platformNumber":1,"latitude":49.0421,"longitude":21.1888,"tooltip":"Z\u0160 Ve\u013ek\u00fd \u0160ari\u0161"},{"platformNumber":2,"latitude":49.0421,"longitude":21.1888,"tooltip":"Z\u0160 Ve\u013ek\u00fd \u0160ari\u0161"}],"ezLines":["14"],"ezStopTypeName":"Navigation.StopType.Urban","passingLines":{"1":[{"lineType":"bus","lines":["14"]}],"2":[{"lineType":"bus","lines":["14"]}]},"subRegion":"SK;Pre\u0161ovsk\u00fd kraj;Pre\u0161ov"},{"stopID":1030000080,"stopName":"Varo\u0161","stopRawName":"Ve\u013ek\u00fd \u0160ari\u0161, Varo\u0161","stopCity":"Ve\u013ek\u00fd \u0160ari\u0161","latitude":null,"longitude":null,"iconName":"stop_urban","forUrbanPublicTransport":true,"forBusTransport":false,"forRail":false,"POIData":false,"platforms":[{"platformNumber":1,"latitude":49.04,"longitude":21.1908,"tooltip":"Varo\u0161"},{"platformNumber":2,"latitude":49.04,"longitude":21.1908,"tooltip":"Varo\u0161"}],"ezLines":["14","21","45"],"ezStopTypeName":"Navigation.StopType.Urban","passingLines":{"1":[{"lineType":"bus","lines":["14","21","45"]}],"2":[{"lineType":"bus","lines":["21","45"]}]},"subRegion":"SK;Pre\u0161ovsk\u00fd kraj;Pre\u0161ov"},{"stopID":1040000715,"stopName":"Mestsk\u00fd \u00darad","stopRawName":"Ve\u013ek\u00fd \u0160ari\u0161,  Mestsk\u00fd \u00darad","stopCity":"Ve\u013ek\u00fd \u0160ari\u0161","latitude":null,"longitude":null,"iconName":"stop_bikesharing","forUrbanPublicTransport":false,"forBusTransport":false,"forRail":false,"POIData":{"type":"bikesharing","name":"Ve\u013ek\u00fd \u0160ari\u0161,  Mestsk\u00fd \u00darad","tooltip":"Ve\u013ek\u00fd \u0160ari\u0161,  Mestsk\u00fd \u00darad, bikesharing","description":"https:\/\/www.verejnybicykel.sk","url":"Bikesharing ANTIK","stationID":null,"bikeDocks":null,"parkedBikes":null,"sponsorName":null,"sponsorLogo":null},"platforms":[{"platformNumber":1,"latitude":49.038666,"longitude":21.192707,"tooltip":"Ve\u013ek\u00fd \u0160ari\u0161,  Mestsk\u00fd \u00darad; https:\/\/www.verejnybicykel.sk; Bikesharing ANTIK"}],"ezLines":[],"ezStopTypeName":"","passingLines":[],"subRegion":";;"},{"stopID":1040000716,"stopName":"\u0160portov\u00fd Are\u00e1l - kolk\u00e1re\u0148","stopRawName":"Ve\u013ek\u00fd \u0160ari\u0161,  \u0160portov\u00fd Are\u00e1l - kolk\u00e1re\u0148","stopCity":"Ve\u013ek\u00fd \u0160ari\u0161","latitude":null,"longitude":null,"iconName":"stop_bikesharing","forUrbanPublicTransport":false,"forBusTransport":false,"forRail":false,"POIData":{"type":"bikesharing","name":"Ve\u013ek\u00fd \u0160ari\u0161,  \u0160portov\u00fd Are\u00e1l - kolk\u00e1re\u0148","tooltip":"Ve\u013ek\u00fd \u0160ari\u0161,  \u0160portov\u00fd Are\u00e1l - kolk\u00e1re\u0148, bikesharing","description":"https:\/\/www.verejnybicykel.sk","url":"Bikesharing ANTIK","stationID":null,"bikeDocks":null,"parkedBikes":null,"sponsorName":null,"sponsorLogo":null},"platforms":[{"platformNumber":1,"latitude":49.042744,"longitude":21.186928,"tooltip":"Ve\u013ek\u00fd \u0160ari\u0161,  \u0160portov\u00fd Are\u00e1l - kolk\u00e1re\u0148; https:\/\/www.verejnybicykel.sk; Bikesharing ANTIK"}],"ezLines":[],"ezStopTypeName":"","passingLines":[],"subRegion":";;"},{"stopID":16967,"stopName":"Varo\u0161","stopRawName":"Ve\u013ek\u00fd \u0160ari\u0161, Varo\u0161","stopCity":"Ve\u013ek\u00fd \u0160ari\u0161","latitude":null,"longitude":null,"iconName":"stop","forUrbanPublicTransport":false,"forBusTransport":true,"forRail":false,"POIData":false,"platforms":[{"platformNumber":1,"latitude":49.039371,"longitude":21.191071,"tooltip":"Ve\u013ek\u00fd \u0160ari\u0161, Varo\u0161"},{"platformNumber":2,"latitude":49.039371,"longitude":21.191071,"tooltip":"Ve\u013ek\u00fd \u0160ari\u0161, Varo\u0161"}],"ezLines":["707430"],"ezStopTypeName":"Navigation.StopType.Bus","passingLines":[],"subRegion":"SK;Pre\u0161ovsk\u00fd kraj;Pre\u0161ov"},{"stopID":16727,"stopName":"r\u00e1zc.Gregorovce","stopRawName":"Ve\u013ek\u00fd \u0160ari\u0161, r\u00e1zc.Gregorovce","stopCity":"Ve\u013ek\u00fd \u0160ari\u0161","latitude":null,"longitude":null,"iconName":"stop","forUrbanPublicTransport":false,"forBusTransport":true,"forRail":false,"POIData":false,"platforms":[{"platformNumber":1,"latitude":49.064499,"longitude":21.19236,"tooltip":"Ve\u013ek\u00fd \u0160ari\u0161, r\u00e1zc.Gregorovce, n\u00e1st. 1"},{"platformNumber":2,"latitude":49.064499,"longitude":21.19236,"tooltip":"Ve\u013ek\u00fd \u0160ari\u0161, r\u00e1zc.Gregorovce, n\u00e1st. 2"},{"platformNumber":3,"latitude":49.064499,"longitude":21.19236,"tooltip":"Ve\u013ek\u00fd \u0160ari\u0161, r\u00e1zc.Gregorovce, n\u00e1st. 3"},{"platformNumber":4,"latitude":49.064499,"longitude":21.19236,"tooltip":"Ve\u013ek\u00fd \u0160ari\u0161, r\u00e1zc.Gregorovce, n\u00e1st. 4"}],"ezLines":["704403","707431","707435","707436","707437","708403","708411","708465"],"ezStopTypeName":"Navigation.StopType.Bus","passingLines":[],"subRegion":"SK;Pre\u0161ovsk\u00fd kraj;Pre\u0161ov"},{"stopID":1030000164,"stopName":"Hus\u00ed hrb","stopRawName":"Kana\u0161, Hus\u00ed hrb","stopCity":"Kana\u0161","latitude":null,"longitude":null,"iconName":"stop_urban","forUrbanPublicTransport":true,"forBusTransport":false,"forRail":false,"POIData":false,"platforms":[{"platformNumber":1,"latitude":49.0535,"longitude":21.2323,"tooltip":"Hus\u00ed hrb"},{"platformNumber":2,"latitude":49.0535,"longitude":21.2323,"tooltip":"Hus\u00ed hrb"}],"ezLines":["14","45"],"ezStopTypeName":"Navigation.StopType.Urban","passingLines":{"1":[{"lineType":"bus","lines":["14","45"]}],"2":[{"lineType":"bus","lines":["14"]}]},"subRegion":"SK;Pre\u0161ovsk\u00fd kraj;Pre\u0161ov"},{"stopID":1030000107,"stopName":"Tul\u010d\u00edcka","stopRawName":"Ve\u013ek\u00fd \u0160ari\u0161, Tul\u010d\u00edcka","stopCity":"Ve\u013ek\u00fd \u0160ari\u0161","latitude":null,"longitude":null,"iconName":"stop_urban","forUrbanPublicTransport":true,"forBusTransport":false,"forRail":false,"POIData":false,"platforms":[{"platformNumber":1,"latitude":49.0337,"longitude":21.1943,"tooltip":"Tul\u010d\u00edcka"},{"platformNumber":2,"latitude":49.0337,"longitude":21.1943,"tooltip":"Tul\u010d\u00edcka"}],"ezLines":["21"],"ezStopTypeName":"Navigation.StopType.Urban","passingLines":{"1":[{"lineType":"bus","lines":["21"]}],"2":[{"lineType":"bus","lines":["21"]}]},"subRegion":"SK;Pre\u0161ovsk\u00fd kraj;Pre\u0161ov"},{"stopID":1030000166,"stopName":"Medzi jarkami","stopRawName":"Kana\u0161, Medzi jarkami","stopCity":"Kana\u0161","latitude":null,"longitude":null,"iconName":"stop_urban","forUrbanPublicTransport":true,"forBusTransport":false,"forRail":false,"POIData":false,"platforms":[{"platformNumber":1,"latitude":49.0583,"longitude":21.2304,"tooltip":"Medzi jarkami"},{"platformNumber":2,"latitude":49.0583,"longitude":21.2304,"tooltip":"Medzi jarkami"}],"ezLines":["14","45"],"ezStopTypeName":"Navigation.StopType.Urban","passingLines":{"1":[{"lineType":"bus","lines":["14","45"]}],"2":[{"lineType":"bus","lines":["14"]}]},"subRegion":"SK;Pre\u0161ovsk\u00fd kraj;Pre\u0161ov"},{"stopID":20458,"stopName":"pod hradom","stopRawName":"Ve\u013ek\u00fd \u0160ari\u0161, pod hradom","stopCity":"Ve\u013ek\u00fd \u0160ari\u0161","latitude":null,"longitude":null,"iconName":"stop","forUrbanPublicTransport":false,"forBusTransport":true,"forRail":false,"POIData":false,"platforms":[{"platformNumber":1,"latitude":49.043209075927734,"longitude":21.17963981628418,"tooltip":"Ve\u013ek\u00fd \u0160ari\u0161, pod hradom"},{"platformNumber":2,"latitude":49.043209075927734,"longitude":21.17963981628418,"tooltip":"Ve\u013ek\u00fd \u0160ari\u0161, pod hradom"}],"ezLines":["707430"],"ezStopTypeName":"Navigation.StopType.Bus","passingLines":[],"subRegion":"SK;Pre\u0161ovsk\u00fd kraj;Pre\u0161ov"},{"stopID":1030000167,"stopName":"Star\u00e1 \u0161kola","stopRawName":"Kana\u0161, Star\u00e1 \u0161kola","stopCity":"Kana\u0161","latitude":null,"longitude":null,"iconName":"stop_urban","forUrbanPublicTransport":true,"forBusTransport":false,"forRail":false,"POIData":false,"platforms":[{"platformNumber":1,"latitude":49.0613,"longitude":21.2281,"tooltip":"Star\u00e1 \u0161kola"},{"platformNumber":2,"latitude":49.0613,"longitude":21.2281,"tooltip":"Star\u00e1 \u0161kola"}],"ezLines":["14","45"],"ezStopTypeName":"Navigation.StopType.Urban","passingLines":{"1":[{"lineType":"bus","lines":["14","45"]}],"2":[{"lineType":"bus","lines":["14"]}]},"subRegion":"SK;Pre\u0161ovsk\u00fd kraj;Pre\u0161ov"},{"stopID":1030000165,"stopName":"Pri kostole","stopRawName":"Kana\u0161, Pri kostole","stopCity":"Kana\u0161","latitude":null,"longitude":null,"iconName":"stop_urban","forUrbanPublicTransport":true,"forBusTransport":false,"forRail":false,"POIData":false,"platforms":[{"platformNumber":1,"latitude":49.0568,"longitude":21.2325,"tooltip":"Pri kostole"},{"platformNumber":2,"latitude":49.0568,"longitude":21.2325,"tooltip":"Pri kostole"}],"ezLines":["14","45"],"ezStopTypeName":"Navigation.StopType.Urban","passingLines":{"1":[{"lineType":"bus","lines":["14","45"]}],"2":[{"lineType":"bus","lines":["14"]}]},"subRegion":"SK;Pre\u0161ovsk\u00fd kraj;Pre\u0161ov"},{"stopID":16728,"stopName":"Oc\u00da","stopRawName":"Gregorovce, Oc\u00da","stopCity":"Gregorovce","latitude":null,"longitude":null,"iconName":"stop","forUrbanPublicTransport":false,"forBusTransport":true,"forRail":false,"POIData":false,"platforms":[{"platformNumber":1,"latitude":49.06945,"longitude":21.20595,"tooltip":"Gregorovce, Oc\u00da"},{"platformNumber":2,"latitude":49.06945,"longitude":21.20595,"tooltip":"Gregorovce, Oc\u00da"}],"ezLines":["707435","707436","707437","708465"],"ezStopTypeName":"Navigation.StopType.Bus","passingLines":[],"subRegion":"SK;Pre\u0161ovsk\u00fd kraj;Pre\u0161ov"},{"stopID":1030000168,"stopName":"Kana\u0161 - Str\u00e1\u017ee","stopRawName":"Kana\u0161, Kana\u0161 - Str\u00e1\u017ee","stopCity":"Kana\u0161","latitude":null,"longitude":null,"iconName":"stop_urban","forUrbanPublicTransport":true,"forBusTransport":false,"forRail":false,"POIData":false,"platforms":[{"platformNumber":1,"latitude":49.0659,"longitude":21.2303,"tooltip":"Kana\u0161 - Str\u00e1\u017ee"},{"platformNumber":2,"latitude":49.0659,"longitude":21.2303,"tooltip":"Kana\u0161 - Str\u00e1\u017ee"}],"ezLines":["14","45"],"ezStopTypeName":"Navigation.StopType.Urban","passingLines":{"1":[{"lineType":"bus","lines":["14","45"]}],"2":[{"lineType":"bus","lines":["14"]}]},"subRegion":"SK;Pre\u0161ovsk\u00fd kraj;Pre\u0161ov"},{"stopID":1030000093,"stopName":"Biko\u0161","stopRawName":"Ve\u013ek\u00fd \u0160ari\u0161, Biko\u0161","stopCity":"Ve\u013ek\u00fd \u0160ari\u0161","latitude":null,"longitude":null,"iconName":"stop_urban","forUrbanPublicTransport":true,"forBusTransport":false,"forRail":false,"POIData":false,"platforms":[{"platformNumber":1,"latitude":49.0288,"longitude":21.2191,"tooltip":"Biko\u0161"},{"platformNumber":2,"latitude":49.0288,"longitude":21.2191,"tooltip":"Biko\u0161"}],"ezLines":["14","45"],"ezStopTypeName":"Navigation.StopType.Urban","passingLines":{"1":[{"lineType":"bus","lines":["14","45"]}],"2":[{"lineType":"bus","lines":["14","45"]}]},"subRegion":"SK;Pre\u0161ovsk\u00fd kraj;Pre\u0161ov"},{"stopID":16729,"stopName":"most","stopRawName":"Gregorovce, most","stopCity":"Gregorovce","latitude":null,"longitude":null,"iconName":"stop","forUrbanPublicTransport":false,"forBusTransport":true,"forRail":false,"POIData":false,"platforms":[{"platformNumber":1,"latitude":49.07564163208008,"longitude":21.205440521240234,"tooltip":"Gregorovce, most"},{"platformNumber":2,"latitude":49.07564163208008,"longitude":21.205440521240234,"tooltip":"Gregorovce, most"}],"ezLines":["707435","707436","707437","708465"],"ezStopTypeName":"Navigation.StopType.Bus","passingLines":[],"subRegion":"SK;Pre\u0161ovsk\u00fd kraj;Pre\u0161ov"},{"stopID":1030000205,"stopName":"D\u00fabravsk\u00e1","stopRawName":"Pre\u0161ov, D\u00fabravsk\u00e1","stopCity":"Pre\u0161ov","latitude":null,"longitude":null,"iconName":"stop_urban","forUrbanPublicTransport":true,"forBusTransport":false,"forRail":false,"POIData":false,"platforms":[{"platformNumber":1,"latitude":49.031,"longitude":21.2354,"tooltip":"D\u00fabravsk\u00e1"}],"ezLines":["12"],"ezStopTypeName":"Navigation.StopType.Urban","passingLines":{"1":[{"lineType":"bus","lines":["12"]}]},"subRegion":"SK;Pre\u0161ovsk\u00fd kraj;Pre\u0161ov"},{"stopID":1030000206,"stopName":"Pri kaplnke","stopRawName":"Pre\u0161ov, Pri kaplnke","stopCity":"Pre\u0161ov","latitude":null,"longitude":null,"iconName":"stop_urban","forUrbanPublicTransport":true,"forBusTransport":false,"forRail":false,"POIData":false,"platforms":[{"platformNumber":1,"latitude":49.0287,"longitude":21.2349,"tooltip":"Pri kaplnke"}],"ezLines":["12"],"ezStopTypeName":"Navigation.StopType.Urban","passingLines":{"1":[{"lineType":"bus","lines":["12"]}]},"subRegion":"SK;Pre\u0161ovsk\u00fd kraj;Pre\u0161ov"},{"stopID":1030000136,"stopName":"Stavb\u00e1rska","stopRawName":"Pre\u0161ov, Stavb\u00e1rska","stopCity":"Pre\u0161ov","latitude":null,"longitude":null,"iconName":"stop_urban","forUrbanPublicTransport":true,"forBusTransport":false,"forRail":false,"POIData":false,"platforms":[{"platformNumber":1,"latitude":49.033,"longitude":21.2418,"tooltip":"Stavb\u00e1rska"},{"platformNumber":2,"latitude":49.033,"longitude":21.2418,"tooltip":"Stavb\u00e1rska"}],"ezLines":["12","22"],"ezStopTypeName":"Navigation.StopType.Urban","passingLines":{"1":[{"lineType":"bus","lines":["12"]}],"2":[{"lineType":"bus","lines":["22"]}]},"subRegion":"SK;Pre\u0161ovsk\u00fd kraj;Pre\u0161ov"},{"stopID":16827,"stopName":"r\u00e1zc.Uzovce","stopRawName":"Gregorovce, r\u00e1zc.Uzovce","stopCity":"Gregorovce","latitude":null,"longitude":null,"iconName":"stop","forUrbanPublicTransport":false,"forBusTransport":true,"forRail":false,"POIData":false,"platforms":[{"platformNumber":1,"latitude":49.080078,"longitude":21.207109,"tooltip":"Gregorovce, r\u00e1zc.Uzovce"},{"platformNumber":2,"latitude":49.080078,"longitude":21.207109,"tooltip":"Gregorovce, r\u00e1zc.Uzovce"}],"ezLines":["707435","707436","707437","708453","708465"],"ezStopTypeName":"Navigation.StopType.Bus","passingLines":[],"subRegion":"SK;Pre\u0161ovsk\u00fd kraj;Sabinov"},{"stopID":1030000145,"stopName":"Jahodov\u00e1","stopRawName":"Pre\u0161ov, Jahodov\u00e1","stopCity":"Pre\u0161ov","latitude":null,"longitude":null,"iconName":"stop_urban","forUrbanPublicTransport":true,"forBusTransport":false,"forRail":false,"POIData":false,"platforms":[{"platformNumber":1,"latitude":49.0321,"longitude":21.2427,"tooltip":"Jahodov\u00e1"},{"platformNumber":2,"latitude":49.0321,"longitude":21.2427,"tooltip":"Jahodov\u00e1"}],"ezLines":["12","22"],"ezStopTypeName":"Navigation.StopType.Urban","passingLines":{"1":[{"lineType":"bus","lines":["22"]}],"2":[{"lineType":"bus","lines":["12"]}]},"subRegion":"SK;Pre\u0161ovsk\u00fd kraj;Pre\u0161ov"},{"stopID":1030000137,"stopName":"\u0160idlovsk\u00e1","stopRawName":"Pre\u0161ov, \u0160idlovsk\u00e1","stopCity":"Pre\u0161ov","latitude":null,"longitude":null,"iconName":"stop_urban","forUrbanPublicTransport":true,"forBusTransport":false,"forRail":false,"POIData":false,"platforms":[{"platformNumber":1,"latitude":49.03,"longitude":21.2404,"tooltip":"\u0160idlovsk\u00e1"},{"platformNumber":2,"latitude":49.03,"longitude":21.2404,"tooltip":"\u0160idlovsk\u00e1"}],"ezLines":["12","22"],"ezStopTypeName":"Navigation.StopType.Urban","passingLines":{"1":[{"lineType":"bus","lines":["12","22"]}],"2":[{"lineType":"bus","lines":["12","22"]}]},"subRegion":"SK;Pre\u0161ovsk\u00fd kraj;Pre\u0161ov"},{"stopID":1030000042,"stopName":"D\u00fabrava","stopRawName":"Pre\u0161ov, D\u00fabrava","stopCity":"Pre\u0161ov","latitude":null,"longitude":null,"iconName":"stop_urban","forUrbanPublicTransport":true,"forBusTransport":false,"forRail":false,"POIData":false,"platforms":[{"platformNumber":1,"latitude":49.0249,"longitude":21.2321,"tooltip":"D\u00fabrava"},{"platformNumber":2,"latitude":49.0249,"longitude":21.2321,"tooltip":"D\u00fabrava"}],"ezLines":["12","14","2","45","5"],"ezStopTypeName":"Navigation.StopType.Urban","passingLines":{"1":[{"lineType":"bus","lines":["12","14","5"]}],"2":[{"lineType":"bus","lines":["14","2","45"]}]},"subRegion":"SK;Pre\u0161ovsk\u00fd kraj;Pre\u0161ov"},{"stopID":1030000001,"stopName":"S\u00eddlisko III","stopRawName":"Pre\u0161ov, S\u00eddlisko III","stopCity":"Pre\u0161ov","latitude":null,"longitude":null,"iconName":"stop_urban","forUrbanPublicTransport":true,"forBusTransport":false,"forRail":false,"POIData":false,"platforms":[{"platformNumber":1,"latitude":49.0235,"longitude":21.229,"tooltip":"S\u00eddlisko III"},{"platformNumber":2,"latitude":49.0235,"longitude":21.229,"tooltip":"S\u00eddlisko III"}],"ezLines":["12","17","29","34","38","39","4","8","N1","N2"],"ezStopTypeName":"Navigation.StopType.Urban","passingLines":{"1":[{"lineType":"bus","lines":["12","17","29","34","38","39","4","8","N1","N2"]}],"2":[{"lineType":"bus","lines":["17","29","34","38","39","4","8","N1","N2"]}]},"subRegion":"SK;Pre\u0161ovsk\u00fd kraj;Pre\u0161ov"},{"stopID":1030000091,"stopName":"Bajkalsk\u00e1","stopRawName":"Pre\u0161ov, Bajkalsk\u00e1","stopCity":"Pre\u0161ov","latitude":null,"longitude":null,"iconName":"stop_urban","forUrbanPublicTransport":true,"forBusTransport":false,"forRail":false,"POIData":false,"platforms":[{"platformNumber":1,"latitude":49.0236,"longitude":21.2299,"tooltip":"Bajkalsk\u00e1"},{"platformNumber":2,"latitude":49.0236,"longitude":21.2299,"tooltip":"Bajkalsk\u00e1"}],"ezLines":["12","2","43","5"],"ezStopTypeName":"Navigation.StopType.Urban","passingLines":{"1":[{"lineType":"bus","lines":["43","5"]}],"2":[{"lineType":"bus","lines":["12","2"]}]},"subRegion":"SK;Pre\u0161ovsk\u00fd kraj;Pre\u0161ov"},{"stopID":1030000002,"stopName":"Prost\u011bjovsk\u00e1","stopRawName":"Pre\u0161ov, Prost\u011bjovsk\u00e1","stopCity":"Pre\u0161ov","latitude":null,"longitude":null,"iconName":"stop_urban","forUrbanPublicTransport":true,"forBusTransport":false,"forRail":false,"POIData":false,"platforms":[{"platformNumber":1,"latitude":49.0209,"longitude":21.2248,"tooltip":"Prost\u011bjovsk\u00e1"},{"platformNumber":2,"latitude":49.0209,"longitude":21.2248,"tooltip":"Prost\u011bjovsk\u00e1"}],"ezLines":["12","17","29","34","38","39","4","43","8","N1","N2"],"ezStopTypeName":"Navigation.StopType.Urban","passingLines":{"1":[{"lineType":"bus","lines":["12","17","29","34","38","39","4","43","8","N1"]}],"2":[{"lineType":"bus","lines":["12","17","29","34","38","39","4","8","N1","N2"]}]},"subRegion":"SK;Pre\u0161ovsk\u00fd kraj;Pre\u0161ov"},{"stopID":22069,"stopName":"Prost\u011bjovsk\u00e1","stopRawName":"Pre\u0161ov, Prost\u011bjovsk\u00e1","stopCity":"Pre\u0161ov","latitude":null,"longitude":null,"iconName":"stop","forUrbanPublicTransport":false,"forBusTransport":true,"forRail":false,"POIData":false,"platforms":[{"platformNumber":2,"latitude":49.02074,"longitude":21.22437,"tooltip":"Pre\u0161ov, Prost\u011bjovsk\u00e1"}],"ezLines":["707436"],"ezStopTypeName":"Navigation.StopType.Bus","passingLines":[],"subRegion":"SK;Pre\u0161ovsk\u00fd kraj;Pre\u0161ov"},{"stopID":1030000135,"stopName":"\u0160idlovec","stopRawName":"Pre\u0161ov, \u0160idlovec","stopCity":"Pre\u0161ov","latitude":null,"longitude":null,"iconName":"stop_urban","forUrbanPublicTransport":true,"forBusTransport":false,"forRail":false,"POIData":false,"platforms":[{"platformNumber":1,"latitude":49.0329,"longitude":21.2481,"tooltip":"\u0160idlovec"},{"platformNumber":2,"latitude":49.0329,"longitude":21.2481,"tooltip":"\u0160idlovec"}],"ezLines":["12","22"],"ezStopTypeName":"Navigation.StopType.Urban","passingLines":{"1":[{"lineType":"bus","lines":["12","22"]}],"2":[{"lineType":"bus","lines":["12","22"]}]},"subRegion":"SK;Pre\u0161ovsk\u00fd kraj;Pre\u0161ov"},{"stopID":1030000138,"stopName":"J\u00e1no\u0161\u00edkova","stopRawName":"Pre\u0161ov, J\u00e1no\u0161\u00edkova","stopCity":"Pre\u0161ov","latitude":null,"longitude":null,"iconName":"stop_urban","forUrbanPublicTransport":true,"forBusTransport":false,"forRail":false,"POIData":false,"platforms":[{"platformNumber":1,"latitude":49.0248,"longitude":21.2377,"tooltip":"J\u00e1no\u0161\u00edkova"},{"platformNumber":2,"latitude":49.0248,"longitude":21.2377,"tooltip":"J\u00e1no\u0161\u00edkova"}],"ezLines":["12","22"],"ezStopTypeName":"Navigation.StopType.Urban","passingLines":{"1":[{"lineType":"bus","lines":["12","22"]}],"2":[{"lineType":"bus","lines":["12","22"]}]},"subRegion":"SK;Pre\u0161ovsk\u00fd kraj;Pre\u0161ov"},{"stopID":16731,"stopName":"r\u00e1zc.Uzovce","stopRawName":"Hubo\u0161ovce, r\u00e1zc.Uzovce","stopCity":"Hubo\u0161ovce","latitude":null,"longitude":null,"iconName":"stop","forUrbanPublicTransport":false,"forBusTransport":true,"forRail":false,"POIData":false,"platforms":[{"platformNumber":1,"latitude":49.083488,"longitude":21.20286,"tooltip":"Hubo\u0161ovce, r\u00e1zc.Uzovce"},{"platformNumber":2,"latitude":49.083488,"longitude":21.20286,"tooltip":"Hubo\u0161ovce, r\u00e1zc.Uzovce"}],"ezLines":["707435","707436","707437","708453","708465"],"ezStopTypeName":"Navigation.StopType.Bus","passingLines":[],"subRegion":"SK;Pre\u0161ovsk\u00fd kraj;Sabinov"},{"stopID":16968,"stopName":"r\u00e1zc.\u017dup\u010dany","stopRawName":"Medzany, r\u00e1zc.\u017dup\u010dany","stopCity":"Medzany","latitude":null,"longitude":null,"iconName":"stop","forUrbanPublicTransport":false,"forBusTransport":true,"forRail":false,"POIData":false,"platforms":[{"platformNumber":1,"latitude":49.041759,"longitude":21.15568,"tooltip":"Medzany, r\u00e1zc.\u017dup\u010dany"},{"platformNumber":2,"latitude":49.041759,"longitude":21.15568,"tooltip":"Medzany, r\u00e1zc.\u017dup\u010dany"}],"ezLines":["707430"],"ezStopTypeName":"Navigation.StopType.Bus","passingLines":[],"subRegion":"SK;Pre\u0161ovsk\u00fd kraj;Pre\u0161ov"},{"stopID":1030000204,"stopName":"Veterin\u00e1rna nemocnica","stopRawName":"Pre\u0161ov, Veterin\u00e1rna nemocnica","stopCity":"Pre\u0161ov","latitude":null,"longitude":null,"iconName":"stop_urban","forUrbanPublicTransport":true,"forBusTransport":false,"forRail":false,"POIData":false,"platforms":[{"platformNumber":1,"latitude":49.021,"longitude":21.232,"tooltip":"Veterin\u00e1rna nemocnica"},{"platformNumber":2,"latitude":49.021,"longitude":21.232,"tooltip":"Veterin\u00e1rna nemocnica"}],"ezLines":["12","2","43","5","N2"],"ezStopTypeName":"Navigation.StopType.Urban","passingLines":{"1":[{"lineType":"bus","lines":["12","43","5","N2"]}],"2":[{"lineType":"bus","lines":["12","2"]}]},"subRegion":"SK;Pre\u0161ovsk\u00fd kraj;Pre\u0161ov"},{"stopID":1030000003,"stopName":"Centrum","stopRawName":"Pre\u0161ov, Centrum","stopCity":"Pre\u0161ov","latitude":null,"longitude":null,"iconName":"stop_urban","forUrbanPublicTransport":true,"forBusTransport":false,"forRail":false,"POIData":false,"platforms":[{"platformNumber":1,"latitude":49.0171,"longitude":21.2235,"tooltip":"Centrum"},{"platformNumber":2,"latitude":49.0171,"longitude":21.2235,"tooltip":"Centrum"}],"ezLines":["12","17","29","34","38","39","4","43","8","N1","N2"],"ezStopTypeName":"Navigation.StopType.Urban","passingLines":{"1":[{"lineType":"bus","lines":["12","17","29","34","38","39","4","43","8","N1"]}],"2":[{"lineType":"bus","lines":["12","17","29","34","38","39","4","8","N1","N2"]}]},"subRegion":"SK;Pre\u0161ovsk\u00fd kraj;Pre\u0161ov"},{"stopID":1030000043,"stopName":"R\u00e1zc. \u0160idlovec","stopRawName":"Pre\u0161ov, R\u00e1zc. \u0160idlovec","stopCity":"Pre\u0161ov","latitude":null,"longitude":null,"iconName":"stop_urban","forUrbanPublicTransport":true,"forBusTransport":false,"forRail":false,"POIData":false,"platforms":[{"platformNumber":1,"latitude":49.0207,"longitude":21.2358,"tooltip":"R\u00e1zc. \u0160idlovec"},{"platformNumber":2,"latitude":49.0207,"longitude":21.2358,"tooltip":"R\u00e1zc. \u0160idlovec"}],"ezLines":["14","2","22","43","45","5","N2"],"ezStopTypeName":"Navigation.StopType.Urban","passingLines":{"1":[{"lineType":"bus","lines":["14","22","43","45","5","N2"]}],"2":[{"lineType":"bus","lines":["14","2","22","45"]}]},"subRegion":"SK;Pre\u0161ovsk\u00fd kraj;Pre\u0161ov"},{"stopID":1494,"stopName":"r\u00e1zc.\u0160idlovec","stopRawName":"Pre\u0161ov, r\u00e1zc.\u0160idlovec","stopCity":"Pre\u0161ov","latitude":null,"longitude":null,"iconName":"stop","forUrbanPublicTransport":false,"forBusTransport":true,"forRail":false,"POIData":false,"platforms":[{"platformNumber":1,"latitude":49.02063,"longitude":21.23585,"tooltip":"Pre\u0161ov, r\u00e1zc.\u0160idlovec"},{"platformNumber":2,"latitude":49.02117,"longitude":21.23532,"tooltip":"Pre\u0161ov, r\u00e1zc.\u0160idlovec"}],"ezLines":["704403","707430","707431","707432","707435","707436","707437","708403","708411","708465","710442","802435"],"ezStopTypeName":"Navigation.StopType.Bus","passingLines":[],"subRegion":"SK;Pre\u0161ovsk\u00fd kraj;Pre\u0161ov"}]}