{"status":"ok","stops":[{"stopID":1030000004,"stopName":"VUKOV","stopRawName":"Pre\u0161ov, VUKOV","stopCity":"Pre\u0161ov","latitude":null,"longitude":null,"iconName":"stop_urban","forUrbanPublicTransport":true,"forBusTransport":false,"forRail":false,"POIData":false,"platforms":[{"platformNumber":1,"latitude":49.0106,"longitude":21.2222,"tooltip":"VUKOV"},{"platformNumber":2,"latitude":49.0106,"longitude":21.2222,"tooltip":"VUKOV"}],"ezLines":["12","17","29","34","38","39","4","43","8","N1","N2"],"ezStopTypeName":"Navigation.StopType.Urban","passingLines":{"1":[{"lineType":"bus","lines":["12","17","29","34","38","39","4","43","8","N1"]}],"2":[{"lineType":"bus","lines":["12","17","29","34","38","4","8","N1","N2"]}]},"subRegion":"SK;Pre\u0161ovsk\u00fd kraj;Pre\u0161ov"},{"stopID":1030000003,"stopName":"Centrum","stopRawName":"Pre\u0161ov, Centrum","stopCity":"Pre\u0161ov","latitude":null,"longitude":null,"iconName":"stop_urban","forUrbanPublicTransport":true,"forBusTransport":false,"forRail":false,"POIData":false,"platforms":[{"platformNumber":1,"latitude":49.0171,"longitude":21.2235,"tooltip":"Centrum"},{"platformNumber":2,"latitude":49.0171,"longitude":21.2235,"tooltip":"Centrum"}],"ezLines":["12","17","29","34","38","39","4","43","8","N1","N2"],"ezStopTypeName":"Navigation.StopType.Urban","passingLines":{"1":[{"lineType":"bus","lines":["12","17","29","34","38","39","4","43","8","N1"]}],"2":[{"lineType":"bus","lines":["12","17","29","34","38","39","4","8","N1","N2"]}]},"subRegion":"SK;Pre\u0161ovsk\u00fd kraj;Pre\u0161ov"},{"stopID":1030000005,"stopName":"Muka\u010devsk\u00e1","stopRawName":"Pre\u0161ov, Muka\u010devsk\u00e1","stopCity":"Pre\u0161ov","latitude":null,"longitude":null,"iconName":"stop_urban","forUrbanPublicTransport":true,"forBusTransport":false,"forRail":false,"POIData":false,"platforms":[{"platformNumber":1,"latitude":49.011,"longitude":21.2263,"tooltip":"Muka\u010devsk\u00e1"},{"platformNumber":2,"latitude":49.011,"longitude":21.2263,"tooltip":"Muka\u010devsk\u00e1"}],"ezLines":["39"],"ezStopTypeName":"Navigation.StopType.Urban","passingLines":{"1":[{"lineType":"bus","lines":["39"]}],"2":[{"lineType":"bus","lines":["39"]}]},"subRegion":"SK;Pre\u0161ovsk\u00fd kraj;Pre\u0161ov"},{"stopID":1030000055,"stopName":"N. Kr\u00e1\u013e. pokoja","stopRawName":"Pre\u0161ov, N. Kr\u00e1\u013e. pokoja","stopCity":"Pre\u0161ov","latitude":null,"longitude":null,"iconName":"stop_urban","forUrbanPublicTransport":true,"forBusTransport":false,"forRail":false,"POIData":false,"platforms":[{"platformNumber":1,"latitude":49.0066,"longitude":21.2214,"tooltip":"N. Kr\u00e1\u013e. pokoja"},{"platformNumber":2,"latitude":49.0066,"longitude":21.2214,"tooltip":"N. Kr\u00e1\u013e. pokoja"}],"ezLines":["12","17","29","34","38","4","43","8","N1","N2"],"ezStopTypeName":"Navigation.StopType.Urban","passingLines":{"1":[{"lineType":"bus","lines":["12","17","29","34","38","4","43","8","N1"]}],"2":[{"lineType":"bus","lines":["12","17","29","34","38","4","8","N1","N2"]}]},"subRegion":"SK;Pre\u0161ovsk\u00fd kraj;Pre\u0161ov"},{"stopID":22069,"stopName":"Prost\u011bjovsk\u00e1","stopRawName":"Pre\u0161ov, Prost\u011bjovsk\u00e1","stopCity":"Pre\u0161ov","latitude":null,"longitude":null,"iconName":"stop","forUrbanPublicTransport":false,"forBusTransport":true,"forRail":false,"POIData":false,"platforms":[{"platformNumber":2,"latitude":49.02074,"longitude":21.22437,"tooltip":"Pre\u0161ov, Prost\u011bjovsk\u00e1"}],"ezLines":["707436"],"ezStopTypeName":"Navigation.StopType.Bus","passingLines":[],"subRegion":"SK;Pre\u0161ovsk\u00fd kraj;Pre\u0161ov"},{"stopID":1030000002,"stopName":"Prost\u011bjovsk\u00e1","stopRawName":"Pre\u0161ov, Prost\u011bjovsk\u00e1","stopCity":"Pre\u0161ov","latitude":null,"longitude":null,"iconName":"stop_urban","forUrbanPublicTransport":true,"forBusTransport":false,"forRail":false,"POIData":false,"platforms":[{"platformNumber":1,"latitude":49.0209,"longitude":21.2248,"tooltip":"Prost\u011bjovsk\u00e1"},{"platformNumber":2,"latitude":49.0209,"longitude":21.2248,"tooltip":"Prost\u011bjovsk\u00e1"}],"ezLines":["12","17","29","34","38","39","4","43","8","N1","N2"],"ezStopTypeName":"Navigation.StopType.Urban","passingLines":{"1":[{"lineType":"bus","lines":["12","17","29","34","38","39","4","43","8","N1"]}],"2":[{"lineType":"bus","lines":["12","17","29","34","38","39","4","8","N1","N2"]}]},"subRegion":"SK;Pre\u0161ovsk\u00fd kraj;Pre\u0161ov"},{"stopID":1030000128,"stopName":"Na R\u00farkach","stopRawName":"Pre\u0161ov, Na R\u00farkach","stopCity":"Pre\u0161ov","latitude":null,"longitude":null,"iconName":"stop_urban","forUrbanPublicTransport":true,"forBusTransport":false,"forRail":false,"POIData":false,"platforms":[{"platformNumber":1,"latitude":49.0078,"longitude":21.2115,"tooltip":"Na R\u00farkach"},{"platformNumber":2,"latitude":49.0078,"longitude":21.2115,"tooltip":"Na R\u00farkach"}],"ezLines":["11","21"],"ezStopTypeName":"Navigation.StopType.Urban","passingLines":{"1":[{"lineType":"bus","lines":["11","21"]}],"2":[{"lineType":"bus","lines":["11"]}]},"subRegion":"SK;Pre\u0161ovsk\u00fd kraj;Pre\u0161ov"},{"stopID":1030000127,"stopName":"J\u00e1na B\u00e9re\u0161a","stopRawName":"Pre\u0161ov, J\u00e1na B\u00e9re\u0161a","stopCity":"Pre\u0161ov","latitude":null,"longitude":null,"iconName":"stop_urban","forUrbanPublicTransport":true,"forBusTransport":false,"forRail":false,"POIData":false,"platforms":[{"platformNumber":1,"latitude":49.0052,"longitude":21.2145,"tooltip":"J\u00e1na B\u00e9re\u0161a"},{"platformNumber":2,"latitude":49.0052,"longitude":21.2145,"tooltip":"J\u00e1na B\u00e9re\u0161a"}],"ezLines":["11","21"],"ezStopTypeName":"Navigation.StopType.Urban","passingLines":{"1":[{"lineType":"bus","lines":["11","21"]}],"2":[{"lineType":"bus","lines":["11"]}]},"subRegion":"SK;Pre\u0161ovsk\u00fd kraj;Pre\u0161ov"},{"stopID":1030000054,"stopName":"Volgogradsk\u00e1","stopRawName":"Pre\u0161ov, Volgogradsk\u00e1","stopCity":"Pre\u0161ov","latitude":null,"longitude":null,"iconName":"stop_urban","forUrbanPublicTransport":true,"forBusTransport":false,"forRail":false,"POIData":false,"platforms":[{"platformNumber":1,"latitude":49.0041,"longitude":21.221,"tooltip":"Volgogradsk\u00e1"},{"platformNumber":2,"latitude":49.0041,"longitude":21.221,"tooltip":"Volgogradsk\u00e1"}],"ezLines":["12","17","29","34","38","4","43","8","N1","N2"],"ezStopTypeName":"Navigation.StopType.Urban","passingLines":{"1":[{"lineType":"bus","lines":["12","17","29","34","38","4","43","8","N1"]}],"2":[{"lineType":"bus","lines":["12","17","29","34","38","4","8","N1","N2"]}]},"subRegion":"SK;Pre\u0161ovsk\u00fd kraj;Pre\u0161ov"},{"stopID":1030000006,"stopName":"Jazdeck\u00e1","stopRawName":"Pre\u0161ov, Jazdeck\u00e1","stopCity":"Pre\u0161ov","latitude":null,"longitude":null,"iconName":"stop_urban","forUrbanPublicTransport":true,"forBusTransport":false,"forRail":false,"POIData":false,"platforms":[{"platformNumber":1,"latitude":49.0087,"longitude":21.2333,"tooltip":"Jazdeck\u00e1"},{"platformNumber":2,"latitude":49.0087,"longitude":21.2333,"tooltip":"Jazdeck\u00e1"}],"ezLines":["39"],"ezStopTypeName":"Navigation.StopType.Urban","passingLines":{"1":[{"lineType":"bus","lines":["39"]}],"2":[{"lineType":"bus","lines":["39"]}]},"subRegion":"SK;Pre\u0161ovsk\u00fd kraj;Pre\u0161ov"},{"stopID":1030000129,"stopName":"R\u00e1zc. R\u00farky","stopRawName":"Pre\u0161ov, R\u00e1zc. R\u00farky","stopCity":"Pre\u0161ov","latitude":null,"longitude":null,"iconName":"stop_urban","forUrbanPublicTransport":true,"forBusTransport":false,"forRail":false,"POIData":false,"platforms":[{"platformNumber":1,"latitude":49.0035,"longitude":21.2162,"tooltip":"R\u00e1zc. R\u00farky"},{"platformNumber":2,"latitude":49.0035,"longitude":21.2162,"tooltip":"R\u00e1zc. R\u00farky"}],"ezLines":["11","21"],"ezStopTypeName":"Navigation.StopType.Urban","passingLines":{"1":[{"lineType":"bus","lines":["11","21"]}],"2":[{"lineType":"bus","lines":["11"]}]},"subRegion":"SK;Pre\u0161ovsk\u00fd kraj;Pre\u0161ov"},{"stopID":1030000204,"stopName":"Veterin\u00e1rna nemocnica","stopRawName":"Pre\u0161ov, Veterin\u00e1rna nemocnica","stopCity":"Pre\u0161ov","latitude":null,"longitude":null,"iconName":"stop_urban","forUrbanPublicTransport":true,"forBusTransport":false,"forRail":false,"POIData":false,"platforms":[{"platformNumber":1,"latitude":49.021,"longitude":21.232,"tooltip":"Veterin\u00e1rna nemocnica"},{"platformNumber":2,"latitude":49.021,"longitude":21.232,"tooltip":"Veterin\u00e1rna nemocnica"}],"ezLines":["12","2","43","5","N2"],"ezStopTypeName":"Navigation.StopType.Urban","passingLines":{"1":[{"lineType":"bus","lines":["12","43","5","N2"]}],"2":[{"lineType":"bus","lines":["12","2"]}]},"subRegion":"SK;Pre\u0161ovsk\u00fd kraj;Pre\u0161ov"},{"stopID":1030000044,"stopName":"Pod Skalkou","stopRawName":"Pre\u0161ov, Pod Skalkou","stopCity":"Pre\u0161ov","latitude":null,"longitude":null,"iconName":"stop_urban","forUrbanPublicTransport":true,"forBusTransport":false,"forRail":false,"POIData":false,"platforms":[{"platformNumber":1,"latitude":49.0155,"longitude":21.2366,"tooltip":"Pod Skalkou"},{"platformNumber":2,"latitude":49.0155,"longitude":21.2366,"tooltip":"Pod Skalkou"}],"ezLines":["14","2","22","43","45","5","N2"],"ezStopTypeName":"Navigation.StopType.Urban","passingLines":{"1":[{"lineType":"bus","lines":["14","22","43","45","5","N2"]}],"2":[{"lineType":"bus","lines":["14","2","22","45"]}]},"subRegion":"SK;Pre\u0161ovsk\u00fd kraj;Pre\u0161ov"},{"stopID":1493,"stopName":"Mi\u010durinova ul.","stopRawName":"Pre\u0161ov, Mi\u010durinova ul.","stopCity":"Pre\u0161ov","latitude":null,"longitude":null,"iconName":"stop","forUrbanPublicTransport":false,"forBusTransport":true,"forRail":false,"POIData":false,"platforms":[{"platformNumber":1,"latitude":49.013611,"longitude":21.237089,"tooltip":"Pre\u0161ov, Mi\u010durinova ul."}],"ezLines":["707430","707431","707432","707435","707436","707437","708403","708411","708465","802435"],"ezStopTypeName":"Navigation.StopType.Bus","passingLines":[],"subRegion":"SK;Pre\u0161ovsk\u00fd kraj;Pre\u0161ov"},{"stopID":1030000045,"stopName":"Mi\u010durinova","stopRawName":"Pre\u0161ov, Mi\u010durinova","stopCity":"Pre\u0161ov","latitude":null,"longitude":null,"iconName":"stop_urban","forUrbanPublicTransport":true,"forBusTransport":false,"forRail":false,"POIData":false,"platforms":[{"platformNumber":1,"latitude":49.0118,"longitude":21.2369,"tooltip":"Mi\u010durinova"},{"platformNumber":2,"latitude":49.0118,"longitude":21.2369,"tooltip":"Mi\u010durinova"}],"ezLines":["14","2","22","43","45","5","N2"],"ezStopTypeName":"Navigation.StopType.Urban","passingLines":{"1":[{"lineType":"bus","lines":["14","22","43","45","5","N2"]}],"2":[{"lineType":"bus","lines":["14","2","22","45"]}]},"subRegion":"SK;Pre\u0161ovsk\u00fd kraj;Pre\u0161ov"},{"stopID":1030000001,"stopName":"S\u00eddlisko III","stopRawName":"Pre\u0161ov, S\u00eddlisko III","stopCity":"Pre\u0161ov","latitude":null,"longitude":null,"iconName":"stop_urban","forUrbanPublicTransport":true,"forBusTransport":false,"forRail":false,"POIData":false,"platforms":[{"platformNumber":1,"latitude":49.0235,"longitude":21.229,"tooltip":"S\u00eddlisko III"},{"platformNumber":2,"latitude":49.0235,"longitude":21.229,"tooltip":"S\u00eddlisko III"}],"ezLines":["12","17","29","34","38","39","4","8","N1","N2"],"ezStopTypeName":"Navigation.StopType.Urban","passingLines":{"1":[{"lineType":"bus","lines":["12","17","29","34","38","39","4","8","N1","N2"]}],"2":[{"lineType":"bus","lines":["17","29","34","38","39","4","8","N1","N2"]}]},"subRegion":"SK;Pre\u0161ovsk\u00fd kraj;Pre\u0161ov"},{"stopID":1030000115,"stopName":"M\u00fdto","stopRawName":"Pre\u0161ov, M\u00fdto","stopCity":"Pre\u0161ov","latitude":null,"longitude":null,"iconName":"stop_urban","forUrbanPublicTransport":true,"forBusTransport":false,"forRail":false,"POIData":false,"platforms":[{"platformNumber":1,"latitude":49.0024,"longitude":21.2154,"tooltip":"M\u00fdto"},{"platformNumber":2,"latitude":49.0024,"longitude":21.2154,"tooltip":"M\u00fdto"}],"ezLines":["18","21"],"ezStopTypeName":"Navigation.StopType.Urban","passingLines":{"1":[{"lineType":"bus","lines":["18","21"]}],"2":[{"lineType":"bus","lines":["18","21"]}]},"subRegion":"SK;Pre\u0161ovsk\u00fd kraj;Pre\u0161ov"},{"stopID":1030000091,"stopName":"Bajkalsk\u00e1","stopRawName":"Pre\u0161ov, Bajkalsk\u00e1","stopCity":"Pre\u0161ov","latitude":null,"longitude":null,"iconName":"stop_urban","forUrbanPublicTransport":true,"forBusTransport":false,"forRail":false,"POIData":false,"platforms":[{"platformNumber":1,"latitude":49.0236,"longitude":21.2299,"tooltip":"Bajkalsk\u00e1"},{"platformNumber":2,"latitude":49.0236,"longitude":21.2299,"tooltip":"Bajkalsk\u00e1"}],"ezLines":["12","2","43","5"],"ezStopTypeName":"Navigation.StopType.Urban","passingLines":{"1":[{"lineType":"bus","lines":["43","5"]}],"2":[{"lineType":"bus","lines":["12","2"]}]},"subRegion":"SK;Pre\u0161ovsk\u00fd kraj;Pre\u0161ov"},{"stopID":1030000053,"stopName":"Clementisova","stopRawName":"Pre\u0161ov, Clementisova","stopCity":"Pre\u0161ov","latitude":null,"longitude":null,"iconName":"stop_urban","forUrbanPublicTransport":true,"forBusTransport":false,"forRail":false,"POIData":false,"platforms":[{"platformNumber":1,"latitude":49.0016,"longitude":21.2244,"tooltip":"Clementisova"},{"platformNumber":2,"latitude":49.0016,"longitude":21.2244,"tooltip":"Clementisova"}],"ezLines":["38","4","8","N1","N2"],"ezStopTypeName":"Navigation.StopType.Urban","passingLines":{"1":[{"lineType":"bus","lines":["38","4","8","N1"]}],"2":[{"lineType":"bus","lines":["38","4","8","N1","N2"]}]},"subRegion":"SK;Pre\u0161ovsk\u00fd kraj;Pre\u0161ov"},{"stopID":1494,"stopName":"r\u00e1zc.\u0160idlovec","stopRawName":"Pre\u0161ov, r\u00e1zc.\u0160idlovec","stopCity":"Pre\u0161ov","latitude":null,"longitude":null,"iconName":"stop","forUrbanPublicTransport":false,"forBusTransport":true,"forRail":false,"POIData":false,"platforms":[{"platformNumber":1,"latitude":49.02063,"longitude":21.23585,"tooltip":"Pre\u0161ov, r\u00e1zc.\u0160idlovec"},{"platformNumber":2,"latitude":49.02117,"longitude":21.23532,"tooltip":"Pre\u0161ov, r\u00e1zc.\u0160idlovec"}],"ezLines":["704403","707430","707431","707432","707435","707436","707437","708403","708411","708465","710442","802435"],"ezStopTypeName":"Navigation.StopType.Bus","passingLines":[],"subRegion":"SK;Pre\u0161ovsk\u00fd kraj;Pre\u0161ov"},{"stopID":1030000043,"stopName":"R\u00e1zc. \u0160idlovec","stopRawName":"Pre\u0161ov, R\u00e1zc. \u0160idlovec","stopCity":"Pre\u0161ov","latitude":null,"longitude":null,"iconName":"stop_urban","forUrbanPublicTransport":true,"forBusTransport":false,"forRail":false,"POIData":false,"platforms":[{"platformNumber":1,"latitude":49.0207,"longitude":21.2358,"tooltip":"R\u00e1zc. \u0160idlovec"},{"platformNumber":2,"latitude":49.0207,"longitude":21.2358,"tooltip":"R\u00e1zc. \u0160idlovec"}],"ezLines":["14","2","22","43","45","5","N2"],"ezStopTypeName":"Navigation.StopType.Urban","passingLines":{"1":[{"lineType":"bus","lines":["14","22","43","45","5","N2"]}],"2":[{"lineType":"bus","lines":["14","2","22","45"]}]},"subRegion":"SK;Pre\u0161ovsk\u00fd kraj;Pre\u0161ov"},{"stopID":8497,"stopName":"Levo\u010dsk\u00e1","stopRawName":"Pre\u0161ov, Levo\u010dsk\u00e1","stopCity":"Pre\u0161ov","latitude":null,"longitude":null,"iconName":"stop","forUrbanPublicTransport":false,"forBusTransport":true,"forRail":false,"POIData":false,"platforms":[{"platformNumber":1,"latitude":49.00064,"longitude":21.22407,"tooltip":"Pre\u0161ov, Levo\u010dsk\u00e1"},{"platformNumber":2,"latitude":49.000912,"longitude":21.2234,"tooltip":"Pre\u0161ov, Levo\u010dsk\u00e1"}],"ezLines":["701501","704410","707416","707417","707418","707419","707421","707424","707436","708459","713423","810416"],"ezStopTypeName":"Navigation.StopType.Bus","passingLines":[],"subRegion":"SK;Pre\u0161ovsk\u00fd kraj;Pre\u0161ov"},{"stopID":1030000018,"stopName":"Bj\u00f6rnsonova","stopRawName":"Pre\u0161ov, Bj\u00f6rnsonova","stopCity":"Pre\u0161ov","latitude":null,"longitude":null,"iconName":"stop_urban","forUrbanPublicTransport":true,"forBusTransport":false,"forRail":false,"POIData":false,"platforms":[{"platformNumber":2,"latitude":49.0062,"longitude":21.2371,"tooltip":"Bj\u00f6rnsonova"}],"ezLines":["39"],"ezStopTypeName":"Navigation.StopType.Urban","passingLines":{"2":[{"lineType":"bus","lines":["39"]}]},"subRegion":"SK;Pre\u0161ovsk\u00fd kraj;Pre\u0161ov"},{"stopID":1030000082,"stopName":"Levo\u010dsk\u00e1","stopRawName":"Pre\u0161ov, Levo\u010dsk\u00e1","stopCity":"Pre\u0161ov","latitude":null,"longitude":null,"iconName":"stop_urban","forUrbanPublicTransport":true,"forBusTransport":false,"forRail":false,"POIData":false,"platforms":[{"platformNumber":1,"latitude":49.0005,"longitude":21.2242,"tooltip":"Levo\u010dsk\u00e1"},{"platformNumber":2,"latitude":49.0005,"longitude":21.2242,"tooltip":"Levo\u010dsk\u00e1"}],"ezLines":["11","17","18","21","24","29","34"],"ezStopTypeName":"Navigation.StopType.Urban","passingLines":{"1":[{"lineType":"bus","lines":["11","17","18","21","29","34"]}],"2":[{"lineType":"bus","lines":["11","17","18","21","24","29","34"]}]},"subRegion":"SK;Pre\u0161ovsk\u00fd kraj;Pre\u0161ov"},{"stopID":1030000007,"stopName":"Sabinovsk\u00e1","stopRawName":"Pre\u0161ov, Sabinovsk\u00e1","stopCity":"Pre\u0161ov","latitude":null,"longitude":null,"iconName":"stop_urban","forUrbanPublicTransport":true,"forBusTransport":false,"forRail":false,"POIData":false,"platforms":[{"platformNumber":1,"latitude":49.0066,"longitude":21.2383,"tooltip":"Sabinovsk\u00e1"},{"platformNumber":2,"latitude":49.0066,"longitude":21.2383,"tooltip":"Sabinovsk\u00e1"}],"ezLines":["14","2","22","39","43","45","5","N2"],"ezStopTypeName":"Navigation.StopType.Urban","passingLines":{"1":[{"lineType":"bus","lines":["14","22","39","43","45","5","N2"]}],"2":[{"lineType":"bus","lines":["14","2","22","45"]}]},"subRegion":"SK;Pre\u0161ovsk\u00fd kraj;Pre\u0161ov"},{"stopID":1314,"stopName":"Sabinovsk\u00e1","stopRawName":"Pre\u0161ov, Sabinovsk\u00e1","stopCity":"Pre\u0161ov","latitude":null,"longitude":null,"iconName":"stop","forUrbanPublicTransport":false,"forBusTransport":true,"forRail":false,"POIData":false,"platforms":[{"platformNumber":1,"latitude":49.00655,"longitude":21.238291,"tooltip":"Pre\u0161ov, Sabinovsk\u00e1"}],"ezLines":["707435","707436","707437"],"ezStopTypeName":"Navigation.StopType.Bus","passingLines":[],"subRegion":"SK;Pre\u0161ovsk\u00fd kraj;Pre\u0161ov"},{"stopID":1030000042,"stopName":"D\u00fabrava","stopRawName":"Pre\u0161ov, D\u00fabrava","stopCity":"Pre\u0161ov","latitude":null,"longitude":null,"iconName":"stop_urban","forUrbanPublicTransport":true,"forBusTransport":false,"forRail":false,"POIData":false,"platforms":[{"platformNumber":1,"latitude":49.0249,"longitude":21.2321,"tooltip":"D\u00fabrava"},{"platformNumber":2,"latitude":49.0249,"longitude":21.2321,"tooltip":"D\u00fabrava"}],"ezLines":["12","14","2","45","5"],"ezStopTypeName":"Navigation.StopType.Urban","passingLines":{"1":[{"lineType":"bus","lines":["12","14","5"]}],"2":[{"lineType":"bus","lines":["14","2","45"]}]},"subRegion":"SK;Pre\u0161ovsk\u00fd kraj;Pre\u0161ov"},{"stopID":1030000061,"stopName":"M. \u010culena","stopRawName":"Pre\u0161ov, M. \u010culena","stopCity":"Pre\u0161ov","latitude":null,"longitude":null,"iconName":"stop_urban","forUrbanPublicTransport":true,"forBusTransport":false,"forRail":false,"POIData":false,"platforms":[{"platformNumber":1,"latitude":48.9997,"longitude":21.2205,"tooltip":"M. \u010culena"},{"platformNumber":2,"latitude":48.9997,"longitude":21.2205,"tooltip":"M. \u010culena"}],"ezLines":["12","24","43"],"ezStopTypeName":"Navigation.StopType.Urban","passingLines":{"1":[{"lineType":"bus","lines":["12","43"]}],"2":[{"lineType":"bus","lines":["12","24"]}]},"subRegion":"SK;Pre\u0161ovsk\u00fd kraj;Pre\u0161ov"},{"stopID":1030000093,"stopName":"Biko\u0161","stopRawName":"Ve\u013ek\u00fd \u0160ari\u0161, Biko\u0161","stopCity":"Ve\u013ek\u00fd \u0160ari\u0161","latitude":null,"longitude":null,"iconName":"stop_urban","forUrbanPublicTransport":true,"forBusTransport":false,"forRail":false,"POIData":false,"platforms":[{"platformNumber":1,"latitude":49.0288,"longitude":21.2191,"tooltip":"Biko\u0161"},{"platformNumber":2,"latitude":49.0288,"longitude":21.2191,"tooltip":"Biko\u0161"}],"ezLines":["14","45"],"ezStopTypeName":"Navigation.StopType.Urban","passingLines":{"1":[{"lineType":"bus","lines":["14","45"]}],"2":[{"lineType":"bus","lines":["14","45"]}]},"subRegion":"SK;Pre\u0161ovsk\u00fd kraj;Pre\u0161ov"},{"stopID":1030000138,"stopName":"J\u00e1no\u0161\u00edkova","stopRawName":"Pre\u0161ov, J\u00e1no\u0161\u00edkova","stopCity":"Pre\u0161ov","latitude":null,"longitude":null,"iconName":"stop_urban","forUrbanPublicTransport":true,"forBusTransport":false,"forRail":false,"POIData":false,"platforms":[{"platformNumber":1,"latitude":49.0248,"longitude":21.2377,"tooltip":"J\u00e1no\u0161\u00edkova"},{"platformNumber":2,"latitude":49.0248,"longitude":21.2377,"tooltip":"J\u00e1no\u0161\u00edkova"}],"ezLines":["12","22"],"ezStopTypeName":"Navigation.StopType.Urban","passingLines":{"1":[{"lineType":"bus","lines":["12","22"]}],"2":[{"lineType":"bus","lines":["12","22"]}]},"subRegion":"SK;Pre\u0161ovsk\u00fd kraj;Pre\u0161ov"},{"stopID":1030000170,"stopName":"Centr\u00e1l","stopRawName":"Pre\u0161ov, Centr\u00e1l","stopCity":"Pre\u0161ov","latitude":null,"longitude":null,"iconName":"stop_urban","forUrbanPublicTransport":true,"forBusTransport":false,"forRail":false,"POIData":false,"platforms":[{"platformNumber":1,"latitude":48.9981,"longitude":21.2272,"tooltip":"Centr\u00e1l"},{"platformNumber":2,"latitude":48.9981,"longitude":21.2272,"tooltip":"Centr\u00e1l"}],"ezLines":["15"],"ezStopTypeName":"Navigation.StopType.Urban","passingLines":{"1":[{"lineType":"bus","lines":["15"]}],"2":[{"lineType":"bus","lines":["15"]}]},"subRegion":"SK;Pre\u0161ovsk\u00fd kraj;Pre\u0161ov"},{"stopID":1030000041,"stopName":"Obr. mieru","stopRawName":"Pre\u0161ov, Obr. mieru","stopCity":"Pre\u0161ov","latitude":null,"longitude":null,"iconName":"stop_urban","forUrbanPublicTransport":true,"forBusTransport":false,"forRail":false,"POIData":false,"platforms":[{"platformNumber":1,"latitude":48.9981,"longitude":21.2281,"tooltip":"Obr. mieru"},{"platformNumber":2,"latitude":48.9981,"longitude":21.2281,"tooltip":"Obr. mieru"}],"ezLines":["15","2","24","34","38","5","N1"],"ezStopTypeName":"Navigation.StopType.Urban","passingLines":{"1":[{"lineType":"bus","lines":["15","2","24","34","38","5","N1"]}],"2":[{"lineType":"bus","lines":["15","2","24","34","38","5","N1"]}]},"subRegion":"SK;Pre\u0161ovsk\u00fd kraj;Pre\u0161ov"},{"stopID":1030000040,"stopName":"Poliklinika","stopRawName":"Pre\u0161ov, Poliklinika","stopCity":"Pre\u0161ov","latitude":null,"longitude":null,"iconName":"stop_urban","forUrbanPublicTransport":true,"forBusTransport":false,"forRail":false,"POIData":false,"platforms":[{"platformNumber":1,"latitude":49.0009,"longitude":21.2361,"tooltip":"Poliklinika"},{"platformNumber":2,"latitude":49.0009,"longitude":21.2361,"tooltip":"Poliklinika"}],"ezLines":["11","15","17","18","2","21","24","29","32","4","5","8","N2"],"ezStopTypeName":"Navigation.StopType.Urban","passingLines":{"1":[{"lineType":"bus","lines":["11","15","17","18","2","21","24","4","8"]}],"2":[{"lineType":"bus","lines":["11","15","17","18","21","24","29","32","4","5","8","N2"]}]},"subRegion":"SK;Pre\u0161ovsk\u00fd kraj;Pre\u0161ov"},{"stopID":1030000062,"stopName":"Odbor\u00e1rska","stopRawName":"Pre\u0161ov, Odbor\u00e1rska","stopCity":"Pre\u0161ov","latitude":null,"longitude":null,"iconName":"stop_urban","forUrbanPublicTransport":true,"forBusTransport":false,"forRail":false,"POIData":false,"platforms":[{"platformNumber":1,"latitude":48.9971,"longitude":21.2219,"tooltip":"Odbor\u00e1rska"},{"platformNumber":2,"latitude":48.9971,"longitude":21.2219,"tooltip":"Odbor\u00e1rska"}],"ezLines":["12","15","24","43"],"ezStopTypeName":"Navigation.StopType.Urban","passingLines":{"1":[{"lineType":"bus","lines":["12","15","43"]}],"2":[{"lineType":"bus","lines":["12","24"]}]},"subRegion":"SK;Pre\u0161ovsk\u00fd kraj;Pre\u0161ov"},{"stopID":1030000199,"stopName":"Z\u0160 Odbor\u00e1rska","stopRawName":"Pre\u0161ov, Z\u0160 Odbor\u00e1rska","stopCity":"Pre\u0161ov","latitude":null,"longitude":null,"iconName":"stop_urban","forUrbanPublicTransport":true,"forBusTransport":false,"forRail":false,"POIData":false,"platforms":[{"platformNumber":1,"latitude":48.9971,"longitude":21.2219,"tooltip":"Z\u0160 Odbor\u00e1rska"},{"platformNumber":2,"latitude":48.9971,"longitude":21.2219,"tooltip":"Z\u0160 Odbor\u00e1rska"}],"ezLines":["21"],"ezStopTypeName":"Navigation.StopType.Urban","passingLines":{"1":[{"lineType":"bus","lines":["21"]}],"2":[{"lineType":"bus","lines":["21"]}]},"subRegion":"SK;Pre\u0161ovsk\u00fd kraj;Pre\u0161ov"},{"stopID":1030000173,"stopName":"Okt\u00f3brov\u00e1","stopRawName":"Pre\u0161ov, Okt\u00f3brov\u00e1","stopCity":"Pre\u0161ov","latitude":null,"longitude":null,"iconName":"stop_urban","forUrbanPublicTransport":true,"forBusTransport":false,"forRail":false,"POIData":false,"platforms":[{"platformNumber":2,"latitude":48.9971,"longitude":21.2229,"tooltip":"Okt\u00f3brov\u00e1"}],"ezLines":["15"],"ezStopTypeName":"Navigation.StopType.Urban","passingLines":{"2":[{"lineType":"bus","lines":["15"]}]},"subRegion":"SK;Pre\u0161ovsk\u00fd kraj;Pre\u0161ov"},{"stopID":21300,"stopName":"Odbor\u00e1rska","stopRawName":"Pre\u0161ov, Odbor\u00e1rska","stopCity":"Pre\u0161ov","latitude":null,"longitude":null,"iconName":"stop","forUrbanPublicTransport":false,"forBusTransport":true,"forRail":false,"POIData":false,"platforms":[{"platformNumber":1,"latitude":48.99662,"longitude":21.22217,"tooltip":"Pre\u0161ov, Odbor\u00e1rska"},{"platformNumber":2,"latitude":48.99662,"longitude":21.22217,"tooltip":"Pre\u0161ov, Odbor\u00e1rska"}],"ezLines":["707418"],"ezStopTypeName":"Navigation.StopType.Bus","passingLines":[],"subRegion":"SK;Pre\u0161ovsk\u00fd kraj;Pre\u0161ov"},{"stopID":1030000025,"stopName":"Duklianska","stopRawName":"Pre\u0161ov, Duklianska","stopCity":"Pre\u0161ov","latitude":null,"longitude":null,"iconName":"stop_urban","forUrbanPublicTransport":true,"forBusTransport":false,"forRail":false,"POIData":false,"platforms":[{"platformNumber":1,"latitude":49.0028,"longitude":21.2416,"tooltip":"Duklianska"},{"platformNumber":2,"latitude":49.0028,"longitude":21.2416,"tooltip":"Duklianska"}],"ezLines":["1","12","17","21","27","28","41","43","7"],"ezStopTypeName":"Navigation.StopType.Urban","passingLines":{"1":[{"lineType":"bus","lines":["1","12","17","21","27","28","41","43","7"]}],"2":[{"lineType":"bus","lines":["1","17","27","28","41","7"]}]},"subRegion":"SK;Pre\u0161ovsk\u00fd kraj;Pre\u0161ov"},{"stopID":1030000114,"stopName":"R\u00e1zc. Cemjata","stopRawName":"Pre\u0161ov, R\u00e1zc. Cemjata","stopCity":"Pre\u0161ov","latitude":null,"longitude":null,"iconName":"stop_urban","forUrbanPublicTransport":true,"forBusTransport":false,"forRail":false,"POIData":false,"platforms":[{"platformNumber":1,"latitude":48.9992,"longitude":21.2049,"tooltip":"R\u00e1zc. Cemjata"},{"platformNumber":2,"latitude":48.9992,"longitude":21.2049,"tooltip":"R\u00e1zc. Cemjata"}],"ezLines":["18","21"],"ezStopTypeName":"Navigation.StopType.Urban","passingLines":{"1":[{"lineType":"bus","lines":["18","21"]}],"2":[{"lineType":"bus","lines":["18","21"]}]},"subRegion":"SK;Pre\u0161ovsk\u00fd kraj;Pre\u0161ov"},{"stopID":1030000206,"stopName":"Pri kaplnke","stopRawName":"Pre\u0161ov, Pri kaplnke","stopCity":"Pre\u0161ov","latitude":null,"longitude":null,"iconName":"stop_urban","forUrbanPublicTransport":true,"forBusTransport":false,"forRail":false,"POIData":false,"platforms":[{"platformNumber":1,"latitude":49.0287,"longitude":21.2349,"tooltip":"Pri kaplnke"}],"ezLines":["12"],"ezStopTypeName":"Navigation.StopType.Urban","passingLines":{"1":[{"lineType":"bus","lines":["12"]}]},"subRegion":"SK;Pre\u0161ovsk\u00fd kraj;Pre\u0161ov"},{"stopID":1030000100,"stopName":"Pod \u0160ibe\u0148ou","stopRawName":"Pre\u0161ov, Pod \u0160ibe\u0148ou","stopCity":"Pre\u0161ov","latitude":null,"longitude":null,"iconName":"stop_urban","forUrbanPublicTransport":true,"forBusTransport":false,"forRail":false,"POIData":false,"platforms":[{"platformNumber":1,"latitude":49.0108,"longitude":21.2474,"tooltip":"Pod \u0160ibe\u0148ou"},{"platformNumber":2,"latitude":49.0108,"longitude":21.2474,"tooltip":"Pod \u0160ibe\u0148ou"}],"ezLines":["41"],"ezStopTypeName":"Navigation.StopType.Urban","passingLines":{"1":[{"lineType":"bus","lines":["41"]}],"2":[{"lineType":"bus","lines":["41"]}]},"subRegion":"SK;Pre\u0161ovsk\u00fd kraj;Pre\u0161ov"},{"stopID":1030000101,"stopName":"Koryto","stopRawName":"Pre\u0161ov, Koryto","stopCity":"Pre\u0161ov","latitude":null,"longitude":null,"iconName":"stop_urban","forUrbanPublicTransport":true,"forBusTransport":false,"forRail":false,"POIData":false,"platforms":[{"platformNumber":1,"latitude":49.0147,"longitude":21.248,"tooltip":"Koryto"},{"platformNumber":2,"latitude":49.0147,"longitude":21.248,"tooltip":"Koryto"}],"ezLines":["41"],"ezStopTypeName":"Navigation.StopType.Urban","passingLines":{"1":[{"lineType":"bus","lines":["41"]}],"2":[{"lineType":"bus","lines":["41"]}]},"subRegion":"SK;Pre\u0161ovsk\u00fd kraj;Pre\u0161ov"},{"stopID":1030000008,"stopName":"Trojica","stopRawName":"Pre\u0161ov, Trojica","stopCity":"Pre\u0161ov","latitude":null,"longitude":null,"iconName":"stop_urban","forUrbanPublicTransport":true,"forBusTransport":false,"forRail":false,"POIData":false,"platforms":[{"platformNumber":1,"latitude":49.0002,"longitude":21.2393,"tooltip":"Trojica"},{"platformNumber":2,"latitude":49.0002,"longitude":21.2393,"tooltip":"Trojica"}],"ezLines":["1","11","12","14","15","18","2","21","22","24","27","28","29","32","36","39","4","41","45","5","7","8","N2"],"ezStopTypeName":"Navigation.StopType.Urban","passingLines":{"1":[{"lineType":"bus","lines":["1","11","12","14","15","18","2","21","22","24","27","28","32","36","39","4","41","45","5","7","8","N2"]}],"2":[{"lineType":"bus","lines":["1","11","12","14","15","18","2","21","22","24","27","28","29","32","36","39","4","41","45","5","7","8","N2"]}]},"subRegion":"SK;Pre\u0161ovsk\u00fd kraj;Pre\u0161ov"},{"stopID":1492,"stopName":"Duklianska","stopRawName":"Pre\u0161ov, Duklianska","stopCity":"Pre\u0161ov","latitude":null,"longitude":null,"iconName":"stop","forUrbanPublicTransport":false,"forBusTransport":true,"forRail":false,"POIData":false,"platforms":[{"platformNumber":1,"latitude":49.00325,"longitude":21.243441,"tooltip":"Pre\u0161ov, Duklianska"},{"platformNumber":2,"latitude":49.00325,"longitude":21.243441,"tooltip":"Pre\u0161ov, Duklianska"}],"ezLines":["704403","707430","707431","707432","707435","707436","707437","708403","708411","708465","710442","802435"],"ezStopTypeName":"Navigation.StopType.Bus","passingLines":[],"subRegion":"SK;Pre\u0161ovsk\u00fd kraj;Pre\u0161ov"},{"stopID":1030000095,"stopName":"Vajansk\u00e9ho","stopRawName":"Pre\u0161ov, Vajansk\u00e9ho","stopCity":"Pre\u0161ov","latitude":null,"longitude":null,"iconName":"stop_urban","forUrbanPublicTransport":true,"forBusTransport":false,"forRail":false,"POIData":false,"platforms":[{"platformNumber":2,"latitude":49.002,"longitude":21.2429,"tooltip":"Vajansk\u00e9ho"}],"ezLines":["12","27"],"ezStopTypeName":"Navigation.StopType.Urban","passingLines":{"2":[{"lineType":"bus","lines":["12","27"]}]},"subRegion":"SK;Pre\u0161ovsk\u00fd kraj;Pre\u0161ov"},{"stopID":1030000099,"stopName":"K Surdoku","stopRawName":"Pre\u0161ov, K Surdoku","stopCity":"Pre\u0161ov","latitude":null,"longitude":null,"iconName":"stop_urban","forUrbanPublicTransport":true,"forBusTransport":false,"forRail":false,"POIData":false,"platforms":[{"platformNumber":1,"latitude":49.0086,"longitude":21.2482,"tooltip":"K Surdoku"},{"platformNumber":2,"latitude":49.0086,"longitude":21.2482,"tooltip":"K Surdoku"}],"ezLines":["41"],"ezStopTypeName":"Navigation.StopType.Urban","passingLines":{"1":[{"lineType":"bus","lines":["41"]}],"2":[{"lineType":"bus","lines":["41"]}]},"subRegion":"SK;Pre\u0161ovsk\u00fd kraj;Pre\u0161ov"},{"stopID":1030000049,"stopName":"N\u00e1m. ml\u00e1de\u017ee","stopRawName":"Pre\u0161ov, N\u00e1m. ml\u00e1de\u017ee","stopCity":"Pre\u0161ov","latitude":null,"longitude":null,"iconName":"stop_urban","forUrbanPublicTransport":true,"forBusTransport":false,"forRail":false,"POIData":false,"platforms":[{"platformNumber":1,"latitude":48.9955,"longitude":21.2295,"tooltip":"N\u00e1m. ml\u00e1de\u017ee"},{"platformNumber":2,"latitude":48.9955,"longitude":21.2295,"tooltip":"N\u00e1m. ml\u00e1de\u017ee"}],"ezLines":["15","2","34","38","N1"],"ezStopTypeName":"Navigation.StopType.Urban","passingLines":{"1":[{"lineType":"bus","lines":["15","N1"]}],"2":[{"lineType":"bus","lines":["2","34","38"]}]},"subRegion":"SK;Pre\u0161ovsk\u00fd kraj;Pre\u0161ov"},{"stopID":1030000212,"stopName":"Flori\u00e1nova","stopRawName":"Pre\u0161ov, Flori\u00e1nova","stopCity":"Pre\u0161ov","latitude":null,"longitude":null,"iconName":"stop_urban","forUrbanPublicTransport":true,"forBusTransport":false,"forRail":false,"POIData":false,"platforms":[{"platformNumber":2,"latitude":48.9972,"longitude":21.2361,"tooltip":"Flori\u00e1nova"}],"ezLines":["32"],"ezStopTypeName":"Navigation.StopType.Urban","passingLines":{"2":[{"lineType":"bus","lines":["32"]}]},"subRegion":"SK;Pre\u0161ovsk\u00fd kraj;Pre\u0161ov"},{"stopID":1030000063,"stopName":"S\u00e1zavsk\u00e9ho","stopRawName":"Pre\u0161ov, S\u00e1zavsk\u00e9ho","stopCity":"Pre\u0161ov","latitude":null,"longitude":null,"iconName":"stop_urban","forUrbanPublicTransport":true,"forBusTransport":false,"forRail":false,"POIData":false,"platforms":[{"platformNumber":1,"latitude":48.9943,"longitude":21.2234,"tooltip":"S\u00e1zavsk\u00e9ho"},{"platformNumber":2,"latitude":48.9943,"longitude":21.2234,"tooltip":"S\u00e1zavsk\u00e9ho"}],"ezLines":["12","15","24","43"],"ezStopTypeName":"Navigation.StopType.Urban","passingLines":{"1":[{"lineType":"bus","lines":["12","15","43"]}],"2":[{"lineType":"bus","lines":["12","15","24"]}]},"subRegion":"SK;Pre\u0161ovsk\u00fd kraj;Pre\u0161ov"},{"stopID":1030000070,"stopName":"\u0160af\u00e1rikova","stopRawName":"Pre\u0161ov, \u0160af\u00e1rikova","stopCity":"Pre\u0161ov","latitude":null,"longitude":null,"iconName":"stop_urban","forUrbanPublicTransport":true,"forBusTransport":false,"forRail":false,"POIData":false,"platforms":[{"platformNumber":1,"latitude":49.0043,"longitude":21.2465,"tooltip":"\u0160af\u00e1rikova"}],"ezLines":["12","21","27","43"],"ezStopTypeName":"Navigation.StopType.Urban","passingLines":{"1":[{"lineType":"bus","lines":["12","21","27","43"]}]},"subRegion":"SK;Pre\u0161ovsk\u00fd kraj;Pre\u0161ov"},{"stopID":15874,"stopName":"\u0160af\u00e1rikova cintor\u00edn","stopRawName":"Pre\u0161ov, \u0160af\u00e1rikova cintor\u00edn","stopCity":"Pre\u0161ov","latitude":null,"longitude":null,"iconName":"stop","forUrbanPublicTransport":false,"forBusTransport":true,"forRail":false,"POIData":false,"platforms":[{"platformNumber":1,"latitude":49.004088,"longitude":21.246714,"tooltip":"Pre\u0161ov, \u0160af\u00e1rikova cintor\u00edn"},{"platformNumber":2,"latitude":49.00433,"longitude":21.24633,"tooltip":"Pre\u0161ov, \u0160af\u00e1rikova cintor\u00edn"}],"ezLines":["701412","701501","702412","707418","707430","707431","707432","707435","707436","707437","707438","707442","707444","707445","707446","707447","707448","707449","707452","708403","708411","708465","710442","711406","711406","712413","712414","712459","713407","713423","802433","807424","811431"],"ezStopTypeName":"Navigation.StopType.Bus","passingLines":[],"subRegion":"SK;Pre\u0161ovsk\u00fd kraj;Pre\u0161ov"},{"stopID":1030000205,"stopName":"D\u00fabravsk\u00e1","stopRawName":"Pre\u0161ov, D\u00fabravsk\u00e1","stopCity":"Pre\u0161ov","latitude":null,"longitude":null,"iconName":"stop_urban","forUrbanPublicTransport":true,"forBusTransport":false,"forRail":false,"POIData":false,"platforms":[{"platformNumber":1,"latitude":49.031,"longitude":21.2354,"tooltip":"D\u00fabravsk\u00e1"}],"ezLines":["12"],"ezStopTypeName":"Navigation.StopType.Urban","passingLines":{"1":[{"lineType":"bus","lines":["12"]}]},"subRegion":"SK;Pre\u0161ovsk\u00fd kraj;Pre\u0161ov"},{"stopID":1030000024,"stopName":"R\u00e1zc. K\u00faty","stopRawName":"Pre\u0161ov, R\u00e1zc. K\u00faty","stopCity":"Pre\u0161ov","latitude":null,"longitude":null,"iconName":"stop_urban","forUrbanPublicTransport":true,"forBusTransport":false,"forRail":false,"POIData":false,"platforms":[{"platformNumber":1,"latitude":49.0084,"longitude":21.2501,"tooltip":"R\u00e1zc. K\u00faty"},{"platformNumber":2,"latitude":49.0084,"longitude":21.2501,"tooltip":"R\u00e1zc. K\u00faty"}],"ezLines":["1","17","21","28","35","7"],"ezStopTypeName":"Navigation.StopType.Urban","passingLines":{"1":[{"lineType":"bus","lines":["1","17","21","28","35","7"]}],"2":[{"lineType":"bus","lines":["1","17","21","28","7"]}]},"subRegion":"SK;Pre\u0161ovsk\u00fd kraj;Pre\u0161ov"},{"stopID":1030000102,"stopName":"Rybn\u00ed\u010dky","stopRawName":"Pre\u0161ov, Rybn\u00ed\u010dky","stopCity":"Pre\u0161ov","latitude":null,"longitude":null,"iconName":"stop_urban","forUrbanPublicTransport":true,"forBusTransport":false,"forRail":false,"POIData":false,"platforms":[{"platformNumber":1,"latitude":49.0195,"longitude":21.2503,"tooltip":"Rybn\u00ed\u010dky"},{"platformNumber":2,"latitude":49.0195,"longitude":21.2503,"tooltip":"Rybn\u00ed\u010dky"}],"ezLines":["41"],"ezStopTypeName":"Navigation.StopType.Urban","passingLines":{"1":[{"lineType":"bus","lines":["41"]}],"2":[{"lineType":"bus","lines":["41"]}]},"subRegion":"SK;Pre\u0161ovsk\u00fd kraj;Pre\u0161ov"},{"stopID":1030000067,"stopName":"Gym. sv. Moniky","stopRawName":"Pre\u0161ov, Gym. sv. Moniky","stopCity":"Pre\u0161ov","latitude":null,"longitude":null,"iconName":"stop_urban","forUrbanPublicTransport":true,"forBusTransport":false,"forRail":false,"POIData":false,"platforms":[{"platformNumber":1,"latitude":48.9953,"longitude":21.2351,"tooltip":"Gym. sv. Moniky"},{"platformNumber":2,"latitude":48.9953,"longitude":21.2351,"tooltip":"Gym. sv. Moniky"}],"ezLines":["12"],"ezStopTypeName":"Navigation.StopType.Urban","passingLines":{"1":[{"lineType":"bus","lines":["12"]}],"2":[{"lineType":"bus","lines":["12"]}]},"subRegion":"SK;Pre\u0161ovsk\u00fd kraj;Pre\u0161ov"},{"stopID":1030000137,"stopName":"\u0160idlovsk\u00e1","stopRawName":"Pre\u0161ov, \u0160idlovsk\u00e1","stopCity":"Pre\u0161ov","latitude":null,"longitude":null,"iconName":"stop_urban","forUrbanPublicTransport":true,"forBusTransport":false,"forRail":false,"POIData":false,"platforms":[{"platformNumber":1,"latitude":49.03,"longitude":21.2404,"tooltip":"\u0160idlovsk\u00e1"},{"platformNumber":2,"latitude":49.03,"longitude":21.2404,"tooltip":"\u0160idlovsk\u00e1"}],"ezLines":["12","22"],"ezStopTypeName":"Navigation.StopType.Urban","passingLines":{"1":[{"lineType":"bus","lines":["12","22"]}],"2":[{"lineType":"bus","lines":["12","22"]}]},"subRegion":"SK;Pre\u0161ovsk\u00fd kraj;Pre\u0161ov"},{"stopID":1030000066,"stopName":"Ostrov\u010dek","stopRawName":"Pre\u0161ov, Ostrov\u010dek","stopCity":"Pre\u0161ov","latitude":null,"longitude":null,"iconName":"stop_urban","forUrbanPublicTransport":true,"forBusTransport":false,"forRail":false,"POIData":false,"platforms":[{"platformNumber":1,"latitude":48.9934,"longitude":21.2305,"tooltip":"Ostrov\u010dek"},{"platformNumber":2,"latitude":48.9934,"longitude":21.2305,"tooltip":"Ostrov\u010dek"}],"ezLines":["15"],"ezStopTypeName":"Navigation.StopType.Urban","passingLines":{"1":[{"lineType":"bus","lines":["15"]}],"2":[{"lineType":"bus","lines":["15"]}]},"subRegion":"SK;Pre\u0161ovsk\u00fd kraj;Pre\u0161ov"},{"stopID":1030000048,"stopName":"Duchnovi\u010dovo n.","stopRawName":"Pre\u0161ov, Duchnovi\u010dovo n.","stopCity":"Pre\u0161ov","latitude":null,"longitude":null,"iconName":"stop_urban","forUrbanPublicTransport":true,"forBusTransport":false,"forRail":false,"POIData":false,"platforms":[{"platformNumber":1,"latitude":48.9938,"longitude":21.2325,"tooltip":"Duchnovi\u010dovo n."},{"platformNumber":2,"latitude":48.9938,"longitude":21.2325,"tooltip":"Duchnovi\u010dovo n."}],"ezLines":["2","34","38","5","N1"],"ezStopTypeName":"Navigation.StopType.Urban","passingLines":{"1":[{"lineType":"bus","lines":["34","38","5","N1"]}],"2":[{"lineType":"bus","lines":["2","34","38","N1"]}]},"subRegion":"SK;Pre\u0161ovsk\u00fd kraj;Pre\u0161ov"},{"stopID":950001089,"stopName":"\u017eel.st.","stopRawName":"Pre\u0161ov mesto, \u017eel.st.","stopCity":"Pre\u0161ov mesto","latitude":null,"longitude":null,"iconName":"stop_train","forUrbanPublicTransport":false,"forBusTransport":false,"forRail":true,"POIData":false,"platforms":[{"platformNumber":0,"latitude":48.994214,"longitude":21.234013,"tooltip":"Pre\u0161ov mesto, \u017eel.st."}],"ezLines":["Os 8500","Os 8501","Os 8502","Os 8503","Os 8504","Os 8505","Os 8506","Os 8507","Os 8510","Os 8511","Os 8514","Os 8515","Os 8516","Os 8517","Os 8518","Os 8519","Os 8520","Os 8521","Os 8522","Os 8523","Os 8524","Os 8525","Os 8526","Os 8527","Os 8528","Os 8529","Os 8530","Os 8533","Os 8536","Os 8553","Os 8586"],"ezStopTypeName":"Navigation.StopType.Train","passingLines":[],"subRegion":"SK;Pre\u0161ovsk\u00fd kraj;Pre\u0161ov"},{"stopID":1030000065,"stopName":"Str. lesn\u00edc. \u0161kola","stopRawName":"Pre\u0161ov, Str. lesn\u00edc. \u0161kola","stopCity":"Pre\u0161ov","latitude":null,"longitude":null,"iconName":"stop_urban","forUrbanPublicTransport":true,"forBusTransport":false,"forRail":false,"POIData":false,"platforms":[{"platformNumber":1,"latitude":48.9928,"longitude":21.229,"tooltip":"Str. lesn\u00edc. \u0161kola"},{"platformNumber":2,"latitude":48.9928,"longitude":21.229,"tooltip":"Str. lesn\u00edc. \u0161kola"}],"ezLines":["12","15","24","43"],"ezStopTypeName":"Navigation.StopType.Urban","passingLines":{"1":[{"lineType":"bus","lines":["12","15","43"]}],"2":[{"lineType":"bus","lines":["12","15","24"]}]},"subRegion":"SK;Pre\u0161ovsk\u00fd kraj;Pre\u0161ov"},{"stopID":1030000064,"stopName":"Koll\u00e1rova","stopRawName":"Pre\u0161ov, Koll\u00e1rova","stopCity":"Pre\u0161ov","latitude":null,"longitude":null,"iconName":"stop_urban","forUrbanPublicTransport":true,"forBusTransport":false,"forRail":false,"POIData":false,"platforms":[{"platformNumber":1,"latitude":48.9921,"longitude":21.2247,"tooltip":"Koll\u00e1rova"},{"platformNumber":2,"latitude":48.9921,"longitude":21.2247,"tooltip":"Koll\u00e1rova"}],"ezLines":["12","15","24","43"],"ezStopTypeName":"Navigation.StopType.Urban","passingLines":{"1":[{"lineType":"bus","lines":["12","15","43"]}],"2":[{"lineType":"bus","lines":["12","15","24"]}]},"subRegion":"SK;Pre\u0161ovsk\u00fd kraj;Pre\u0161ov"},{"stopID":1030000223,"stopName":"Vod\u00e1rensk\u00e1","stopRawName":"Pre\u0161ov, Vod\u00e1rensk\u00e1","stopCity":"Pre\u0161ov","latitude":null,"longitude":null,"iconName":"stop_urban","forUrbanPublicTransport":true,"forBusTransport":false,"forRail":false,"POIData":false,"platforms":[{"platformNumber":1,"latitude":49.0024,"longitude":21.2494,"tooltip":"Vod\u00e1rensk\u00e1"},{"platformNumber":2,"latitude":49.0024,"longitude":21.2494,"tooltip":"Vod\u00e1rensk\u00e1"}],"ezLines":["27"],"ezStopTypeName":"Navigation.StopType.Urban","passingLines":{"1":[{"lineType":"bus","lines":["27"]}],"2":[{"lineType":"bus","lines":["27"]}]},"subRegion":"SK;Pre\u0161ovsk\u00fd kraj;Pre\u0161ov"},{"stopID":22526,"stopName":"Telek\u010da","stopRawName":"Mal\u00fd \u0160ari\u0161, Telek\u010da","stopCity":"Mal\u00fd \u0160ari\u0161","latitude":null,"longitude":null,"iconName":"stop","forUrbanPublicTransport":false,"forBusTransport":true,"forRail":false,"POIData":false,"platforms":[{"platformNumber":1,"latitude":49.001747,"longitude":21.191747,"tooltip":"Mal\u00fd \u0160ari\u0161, Telek\u010da"},{"platformNumber":2,"latitude":49.001747,"longitude":21.191747,"tooltip":"Mal\u00fd \u0160ari\u0161, Telek\u010da"}],"ezLines":["707418","707419","707421","707424"],"ezStopTypeName":"Navigation.StopType.Bus","passingLines":[],"subRegion":"SK;Pre\u0161ovsk\u00fd kraj;Pre\u0161ov"},{"stopID":1030000108,"stopName":"Mal\u00fd \u0160ari\u0161","stopRawName":"Mal\u00fd \u0160ari\u0161, Mal\u00fd \u0160ari\u0161","stopCity":"Mal\u00fd \u0160ari\u0161","latitude":null,"longitude":null,"iconName":"stop_urban","forUrbanPublicTransport":true,"forBusTransport":false,"forRail":false,"POIData":false,"platforms":[{"platformNumber":1,"latitude":49.0149,"longitude":21.1865,"tooltip":"Mal\u00fd \u0160ari\u0161"},{"platformNumber":2,"latitude":49.0149,"longitude":21.1865,"tooltip":"Mal\u00fd \u0160ari\u0161"}],"ezLines":["21"],"ezStopTypeName":"Navigation.StopType.Urban","passingLines":{"1":[{"lineType":"bus","lines":["21"]}],"2":[{"lineType":"bus","lines":["21"]}]},"subRegion":"SK;Pre\u0161ovsk\u00fd kraj;Pre\u0161ov"},{"stopID":1030000112,"stopName":"Telek\u010da","stopRawName":"Mal\u00fd \u0160ari\u0161, Telek\u010da","stopCity":"Mal\u00fd \u0160ari\u0161","latitude":null,"longitude":null,"iconName":"stop_urban","forUrbanPublicTransport":true,"forBusTransport":false,"forRail":false,"POIData":false,"platforms":[{"platformNumber":1,"latitude":49.0018,"longitude":21.1915,"tooltip":"Telek\u010da"},{"platformNumber":2,"latitude":49.0018,"longitude":21.1915,"tooltip":"Telek\u010da"}],"ezLines":["21"],"ezStopTypeName":"Navigation.StopType.Urban","passingLines":{"1":[{"lineType":"bus","lines":["21"]}],"2":[{"lineType":"bus","lines":["21"]}]},"subRegion":"SK;Pre\u0161ovsk\u00fd kraj;Pre\u0161ov"},{"stopID":1030000009,"stopName":"Na Hlavnej","stopRawName":"Pre\u0161ov, Na Hlavnej","stopCity":"Pre\u0161ov","latitude":null,"longitude":null,"iconName":"stop_urban","forUrbanPublicTransport":true,"forBusTransport":false,"forRail":false,"POIData":false,"platforms":[{"platformNumber":1,"latitude":48.9957,"longitude":21.2421,"tooltip":"Na Hlavnej"},{"platformNumber":2,"latitude":48.9957,"longitude":21.2421,"tooltip":"Na Hlavnej"}],"ezLines":["1","11","12","14","15","18","2","21","22","24","27","28","29","32","36","39","4","41","45","5","7","8","N2"],"ezStopTypeName":"Navigation.StopType.Urban","passingLines":{"1":[{"lineType":"bus","lines":["1","11","12","14","15","18","2","21","22","24","27","28","32","36","39","4","41","45","5","7","8","N2"]}],"2":[{"lineType":"bus","lines":["1","11","12","14","15","18","2","21","22","24","27","28","29","32","36","39","4","41","45","5","7","8","N2"]}]},"subRegion":"SK;Pre\u0161ovsk\u00fd kraj;Pre\u0161ov"},{"stopID":1030000088,"stopName":"Dilongova","stopRawName":"Pre\u0161ov, Dilongova","stopCity":"Pre\u0161ov","latitude":null,"longitude":null,"iconName":"stop_urban","forUrbanPublicTransport":true,"forBusTransport":false,"forRail":false,"POIData":false,"platforms":[{"platformNumber":1,"latitude":48.9996,"longitude":21.248,"tooltip":"Dilongova"},{"platformNumber":2,"latitude":48.9996,"longitude":21.248,"tooltip":"Dilongova"}],"ezLines":["10","12","15","19","29"],"ezStopTypeName":"Navigation.StopType.Urban","passingLines":{"1":[{"lineType":"bus","lines":["10"]}],"2":[{"lineType":"bus","lines":["12","15","19","29"]}]},"subRegion":"SK;Pre\u0161ovsk\u00fd kraj;Pre\u0161ov"},{"stopID":1030000103,"stopName":"K\u00faty","stopRawName":"Pre\u0161ov, K\u00faty","stopCity":"Pre\u0161ov","latitude":null,"longitude":null,"iconName":"stop_urban","forUrbanPublicTransport":true,"forBusTransport":false,"forRail":false,"POIData":false,"platforms":[{"platformNumber":1,"latitude":49.0225,"longitude":21.2526,"tooltip":"K\u00faty"},{"platformNumber":2,"latitude":49.0225,"longitude":21.2526,"tooltip":"K\u00faty"}],"ezLines":["41"],"ezStopTypeName":"Navigation.StopType.Urban","passingLines":{"1":[{"lineType":"bus","lines":["41"]}],"2":[{"lineType":"bus","lines":["41"]}]},"subRegion":"SK;Pre\u0161ovsk\u00fd kraj;Pre\u0161ov"},{"stopID":1030000109,"stopName":"\u0160\u013eachtite\u013esk\u00e1 st.","stopRawName":"Mal\u00fd \u0160ari\u0161, \u0160\u013eachtite\u013esk\u00e1 st.","stopCity":"Mal\u00fd \u0160ari\u0161","latitude":null,"longitude":null,"iconName":"stop_urban","forUrbanPublicTransport":true,"forBusTransport":false,"forRail":false,"POIData":false,"platforms":[{"platformNumber":1,"latitude":49.0124,"longitude":21.1857,"tooltip":"\u0160\u013eachtite\u013esk\u00e1 st."},{"platformNumber":2,"latitude":49.0124,"longitude":21.1857,"tooltip":"\u0160\u013eachtite\u013esk\u00e1 st."}],"ezLines":["21"],"ezStopTypeName":"Navigation.StopType.Urban","passingLines":{"1":[{"lineType":"bus","lines":["21"]}],"2":[{"lineType":"bus","lines":["21"]}]},"subRegion":"SK;Pre\u0161ovsk\u00fd kraj;Pre\u0161ov"},{"stopID":1030000171,"stopName":"Pod Kalv\u00e1riou","stopRawName":"Pre\u0161ov, Pod Kalv\u00e1riou","stopCity":"Pre\u0161ov","latitude":null,"longitude":null,"iconName":"stop_urban","forUrbanPublicTransport":true,"forBusTransport":false,"forRail":false,"POIData":false,"platforms":[{"platformNumber":1,"latitude":48.991,"longitude":21.2296,"tooltip":"Pod Kalv\u00e1riou"}],"ezLines":["15","43"],"ezStopTypeName":"Navigation.StopType.Urban","passingLines":{"1":[{"lineType":"bus","lines":["15","43"]}]},"subRegion":"SK;Pre\u0161ovsk\u00fd kraj;Pre\u0161ov"},{"stopID":1030000145,"stopName":"Jahodov\u00e1","stopRawName":"Pre\u0161ov, Jahodov\u00e1","stopCity":"Pre\u0161ov","latitude":null,"longitude":null,"iconName":"stop_urban","forUrbanPublicTransport":true,"forBusTransport":false,"forRail":false,"POIData":false,"platforms":[{"platformNumber":1,"latitude":49.0321,"longitude":21.2427,"tooltip":"Jahodov\u00e1"},{"platformNumber":2,"latitude":49.0321,"longitude":21.2427,"tooltip":"Jahodov\u00e1"}],"ezLines":["12","22"],"ezStopTypeName":"Navigation.StopType.Urban","passingLines":{"1":[{"lineType":"bus","lines":["22"]}],"2":[{"lineType":"bus","lines":["12"]}]},"subRegion":"SK;Pre\u0161ovsk\u00fd kraj;Pre\u0161ov"},{"stopID":1030000224,"stopName":"Hviezdna","stopRawName":"Pre\u0161ov, Hviezdna","stopCity":"Pre\u0161ov","latitude":null,"longitude":null,"iconName":"stop_urban","forUrbanPublicTransport":true,"forBusTransport":false,"forRail":false,"POIData":false,"platforms":[{"platformNumber":1,"latitude":49.0025,"longitude":21.2523,"tooltip":"Hviezdna"},{"platformNumber":2,"latitude":49.0025,"longitude":21.2523,"tooltip":"Hviezdna"}],"ezLines":["27"],"ezStopTypeName":"Navigation.StopType.Urban","passingLines":{"1":[{"lineType":"bus","lines":["27"]}],"2":[{"lineType":"bus","lines":["27"]}]},"subRegion":"SK;Pre\u0161ovsk\u00fd kraj;Pre\u0161ov"},{"stopID":1030000136,"stopName":"Stavb\u00e1rska","stopRawName":"Pre\u0161ov, Stavb\u00e1rska","stopCity":"Pre\u0161ov","latitude":null,"longitude":null,"iconName":"stop_urban","forUrbanPublicTransport":true,"forBusTransport":false,"forRail":false,"POIData":false,"platforms":[{"platformNumber":1,"latitude":49.033,"longitude":21.2418,"tooltip":"Stavb\u00e1rska"},{"platformNumber":2,"latitude":49.033,"longitude":21.2418,"tooltip":"Stavb\u00e1rska"}],"ezLines":["12","22"],"ezStopTypeName":"Navigation.StopType.Urban","passingLines":{"1":[{"lineType":"bus","lines":["12"]}],"2":[{"lineType":"bus","lines":["22"]}]},"subRegion":"SK;Pre\u0161ovsk\u00fd kraj;Pre\u0161ov"},{"stopID":1030000023,"stopName":"Dopravn\u00fd podnik","stopRawName":"Pre\u0161ov, Dopravn\u00fd podnik","stopCity":"Pre\u0161ov","latitude":null,"longitude":null,"iconName":"stop_urban","forUrbanPublicTransport":true,"forBusTransport":false,"forRail":false,"POIData":false,"platforms":[{"platformNumber":1,"latitude":49.0106,"longitude":21.257,"tooltip":"Dopravn\u00fd podnik"},{"platformNumber":2,"latitude":49.0106,"longitude":21.257,"tooltip":"Dopravn\u00fd podnik"}],"ezLines":["1","17","21","28","35","7"],"ezStopTypeName":"Navigation.StopType.Urban","passingLines":{"1":[{"lineType":"bus","lines":["1","17","21","28","35","7"]}],"2":[{"lineType":"bus","lines":["1","17","21","28","7"]}]},"subRegion":"SK;Pre\u0161ovsk\u00fd kraj;Pre\u0161ov"},{"stopID":1030000213,"stopName":"Okru\u017en\u00e1","stopRawName":"Pre\u0161ov, Okru\u017en\u00e1","stopCity":"Pre\u0161ov","latitude":null,"longitude":null,"iconName":"stop_urban","forUrbanPublicTransport":true,"forBusTransport":false,"forRail":false,"POIData":false,"platforms":[{"platformNumber":1,"latitude":48.9931,"longitude":21.2403,"tooltip":"Okru\u017en\u00e1"},{"platformNumber":2,"latitude":48.9931,"longitude":21.2403,"tooltip":"Okru\u017en\u00e1"}],"ezLines":["32","32A"],"ezStopTypeName":"Navigation.StopType.Urban","passingLines":{"1":[{"lineType":"bus","lines":["32A"]}],"2":[{"lineType":"bus","lines":["32"]}]},"subRegion":"SK;Pre\u0161ovsk\u00fd kraj;Pre\u0161ov"},{"stopID":1030000089,"stopName":"Sl\u00e1dkovi\u010dova","stopRawName":"Pre\u0161ov, Sl\u00e1dkovi\u010dova","stopCity":"Pre\u0161ov","latitude":null,"longitude":null,"iconName":"stop_urban","forUrbanPublicTransport":true,"forBusTransport":false,"forRail":false,"POIData":false,"platforms":[{"platformNumber":1,"latitude":48.9975,"longitude":21.2485,"tooltip":"Sl\u00e1dkovi\u010dova"},{"platformNumber":2,"latitude":48.9975,"longitude":21.2485,"tooltip":"Sl\u00e1dkovi\u010dova"}],"ezLines":["10","15","19","29"],"ezStopTypeName":"Navigation.StopType.Urban","passingLines":{"1":[{"lineType":"bus","lines":["10"]}],"2":[{"lineType":"bus","lines":["15","19","29"]}]},"subRegion":"SK;Pre\u0161ovsk\u00fd kraj;Pre\u0161ov"},{"stopID":1030000104,"stopName":"Za K\u00fatami","stopRawName":"Pre\u0161ov, Za K\u00fatami","stopCity":"Pre\u0161ov","latitude":null,"longitude":null,"iconName":"stop_urban","forUrbanPublicTransport":true,"forBusTransport":false,"forRail":false,"POIData":false,"platforms":[{"platformNumber":1,"latitude":49.0256,"longitude":21.2532,"tooltip":"Za K\u00fatami"},{"platformNumber":2,"latitude":49.0256,"longitude":21.2532,"tooltip":"Za K\u00fatami"}],"ezLines":["41"],"ezStopTypeName":"Navigation.StopType.Urban","passingLines":{"1":[{"lineType":"bus","lines":["41"]}],"2":[{"lineType":"bus","lines":["41"]}]},"subRegion":"SK;Pre\u0161ovsk\u00fd kraj;Pre\u0161ov"},{"stopID":1030000068,"stopName":"K\u00fape\u013en\u00e1","stopRawName":"Pre\u0161ov, K\u00fape\u013en\u00e1","stopCity":"Pre\u0161ov","latitude":null,"longitude":null,"iconName":"stop_urban","forUrbanPublicTransport":true,"forBusTransport":false,"forRail":false,"POIData":false,"platforms":[{"platformNumber":1,"latitude":48.9917,"longitude":21.2384,"tooltip":"K\u00fape\u013en\u00e1"},{"platformNumber":2,"latitude":48.9917,"longitude":21.2384,"tooltip":"K\u00fape\u013en\u00e1"}],"ezLines":["12"],"ezStopTypeName":"Navigation.StopType.Urban","passingLines":{"1":[{"lineType":"bus","lines":["12"]}],"2":[{"lineType":"bus","lines":["12"]}]},"subRegion":"SK;Pre\u0161ovsk\u00fd kraj;Pre\u0161ov"},{"stopID":1030000072,"stopName":"Nemocnica","stopRawName":"Pre\u0161ov, Nemocnica","stopCity":"Pre\u0161ov","latitude":null,"longitude":null,"iconName":"stop_urban","forUrbanPublicTransport":true,"forBusTransport":false,"forRail":false,"POIData":false,"platforms":[{"platformNumber":1,"latitude":48.9986,"longitude":21.2509,"tooltip":"Nemocnica"},{"platformNumber":2,"latitude":48.9986,"longitude":21.2509,"tooltip":"Nemocnica"}],"ezLines":["10","12","15","19","21","29","35","43"],"ezStopTypeName":"Navigation.StopType.Urban","passingLines":{"1":[{"lineType":"bus","lines":["10","12","15","21","29","35","43"]}],"2":[{"lineType":"bus","lines":["12","15","19","21","29"]}]},"subRegion":"SK;Pre\u0161ovsk\u00fd kraj;Pre\u0161ov"},{"stopID":21013,"stopName":"Dopravn\u00fd podnik","stopRawName":"\u013dubotice, Dopravn\u00fd podnik","stopCity":"\u013dubotice","latitude":null,"longitude":null,"iconName":"stop","forUrbanPublicTransport":false,"forBusTransport":true,"forRail":false,"POIData":false,"platforms":[{"platformNumber":1,"latitude":49.01083,"longitude":21.258381,"tooltip":"\u013dubotice, Dopravn\u00fd podnik"},{"platformNumber":2,"latitude":49.010609,"longitude":21.25704,"tooltip":"\u013dubotice, Dopravn\u00fd podnik"}],"ezLines":["701412","702412","707438","707442","707444","707445","707446","707447","707448","707449","707452","712459","713407","802433","807424"],"ezStopTypeName":"Navigation.StopType.Bus","passingLines":[],"subRegion":"SK;Pre\u0161ovsk\u00fd kraj;Pre\u0161ov"},{"stopID":1030000220,"stopName":"Terchovsk\u00e1","stopRawName":"Pre\u0161ov, Terchovsk\u00e1","stopCity":"Pre\u0161ov","latitude":null,"longitude":null,"iconName":"stop_urban","forUrbanPublicTransport":true,"forBusTransport":false,"forRail":false,"POIData":false,"platforms":[{"platformNumber":1,"latitude":48.9887,"longitude":21.2156,"tooltip":"Terchovsk\u00e1"},{"platformNumber":2,"latitude":48.9887,"longitude":21.2156,"tooltip":"Terchovsk\u00e1"}],"ezLines":["27"],"ezStopTypeName":"Navigation.StopType.Urban","passingLines":{"1":[{"lineType":"bus","lines":["27"]}],"2":[{"lineType":"bus","lines":["27"]}]},"subRegion":"SK;Pre\u0161ovsk\u00fd kraj;Pre\u0161ov"},{"stopID":1030000047,"stopName":"Vysoko\u0161kol. are\u00e1l","stopRawName":"Pre\u0161ov, Vysoko\u0161kol. are\u00e1l","stopCity":"Pre\u0161ov","latitude":null,"longitude":null,"iconName":"stop_urban","forUrbanPublicTransport":true,"forBusTransport":false,"forRail":false,"POIData":false,"platforms":[{"platformNumber":1,"latitude":48.9904,"longitude":21.2354,"tooltip":"Vysoko\u0161kol. are\u00e1l"},{"platformNumber":2,"latitude":48.9904,"longitude":21.2354,"tooltip":"Vysoko\u0161kol. are\u00e1l"}],"ezLines":["2","34","38","5","N1"],"ezStopTypeName":"Navigation.StopType.Urban","passingLines":{"1":[{"lineType":"bus","lines":["34","38","5","N1"]}],"2":[{"lineType":"bus","lines":["2","34","38","N1"]}]},"subRegion":"SK;Pre\u0161ovsk\u00fd kraj;Pre\u0161ov"},{"stopID":1030000221,"stopName":"S\u00fa\u013eovsk\u00e1","stopRawName":"Pre\u0161ov, S\u00fa\u013eovsk\u00e1","stopCity":"Pre\u0161ov","latitude":null,"longitude":null,"iconName":"stop_urban","forUrbanPublicTransport":true,"forBusTransport":false,"forRail":false,"POIData":false,"platforms":[{"platformNumber":1,"latitude":48.9884,"longitude":21.2221,"tooltip":"S\u00fa\u013eovsk\u00e1"},{"platformNumber":2,"latitude":48.9884,"longitude":21.2221,"tooltip":"S\u00fa\u013eovsk\u00e1"}],"ezLines":["27"],"ezStopTypeName":"Navigation.StopType.Urban","passingLines":{"1":[{"lineType":"bus","lines":["27"]}],"2":[{"lineType":"bus","lines":["27"]}]},"subRegion":"SK;Pre\u0161ovsk\u00fd kraj;Pre\u0161ov"},{"stopID":1030000110,"stopName":"N\u00e1kupn\u00e9 stred.","stopRawName":"Mal\u00fd \u0160ari\u0161, N\u00e1kupn\u00e9 stred.","stopCity":"Mal\u00fd \u0160ari\u0161","latitude":null,"longitude":null,"iconName":"stop_urban","forUrbanPublicTransport":true,"forBusTransport":false,"forRail":false,"POIData":false,"platforms":[{"platformNumber":1,"latitude":49.0098,"longitude":21.1822,"tooltip":"N\u00e1kupn\u00e9 stred."},{"platformNumber":2,"latitude":49.0098,"longitude":21.1822,"tooltip":"N\u00e1kupn\u00e9 stred."}],"ezLines":["21"],"ezStopTypeName":"Navigation.StopType.Urban","passingLines":{"1":[{"lineType":"bus","lines":["21"]}],"2":[{"lineType":"bus","lines":["21"]}]},"subRegion":"SK;Pre\u0161ovsk\u00fd kraj;Pre\u0161ov"},{"stopID":1030000238,"stopName":"Divadlo Jon\u00e1\u0161a Z\u00e1borsk\u00e9ho","stopRawName":"Pre\u0161ov, Divadlo Jon\u00e1\u0161a Z\u00e1borsk\u00e9ho","stopCity":"Pre\u0161ov","latitude":null,"longitude":null,"iconName":"stop_urban","forUrbanPublicTransport":true,"forBusTransport":false,"forRail":false,"POIData":false,"platforms":[{"platformNumber":1,"latitude":48.9933,"longitude":21.244,"tooltip":"Divadlo Jon\u00e1\u0161a Z\u00e1borsk\u00e9ho"},{"platformNumber":2,"latitude":48.9933,"longitude":21.244,"tooltip":"Divadlo Jon\u00e1\u0161a Z\u00e1borsk\u00e9ho"}],"ezLines":["1","11","12","14","15","18","2","21","22","24","27","28","29","32","36","39","4","41","45","5","7","8","N2"],"ezStopTypeName":"Navigation.StopType.Urban","passingLines":{"1":[{"lineType":"bus","lines":["12","2","21","22","24","27","32","36","41","5","7","N2"]}],"2":[{"lineType":"bus","lines":["1","11","14","15","18","28","29","39","4","45","8"]}]},"subRegion":"SK;Pre\u0161ovsk\u00fd kraj;Pre\u0161ov"},{"stopID":1030000175,"stopName":"Vydumanec","stopRawName":"Pre\u0161ov, Vydumanec","stopCity":"Pre\u0161ov","latitude":null,"longitude":null,"iconName":"stop_urban","forUrbanPublicTransport":true,"forBusTransport":false,"forRail":false,"POIData":false,"platforms":[{"platformNumber":1,"latitude":48.9928,"longitude":21.1979,"tooltip":"Vydumanec"},{"platformNumber":2,"latitude":48.9928,"longitude":21.1979,"tooltip":"Vydumanec"}],"ezLines":["18"],"ezStopTypeName":"Navigation.StopType.Urban","passingLines":{"1":[{"lineType":"bus","lines":["18"]}],"2":[{"lineType":"bus","lines":["18"]}]},"subRegion":"SK;Pre\u0161ovsk\u00fd kraj;Pre\u0161ov"},{"stopID":1467,"stopName":"Pre\u0161ovsk\u00e1 univerzita","stopRawName":"Pre\u0161ov, Pre\u0161ovsk\u00e1 univerzita","stopCity":"Pre\u0161ov","latitude":null,"longitude":null,"iconName":"stop","forUrbanPublicTransport":false,"forBusTransport":true,"forRail":false,"POIData":false,"platforms":[{"platformNumber":1,"latitude":48.98985,"longitude":21.23569,"tooltip":"Pre\u0161ov, Pre\u0161ovsk\u00e1 univerzita"},{"platformNumber":2,"latitude":48.98985,"longitude":21.23569,"tooltip":"Pre\u0161ov, Pre\u0161ovsk\u00e1 univerzita"}],"ezLines":["704410","707416","707417","707418","707419","707421","707424","708459","810416"],"ezStopTypeName":"Navigation.StopType.Bus","passingLines":[],"subRegion":"SK;Pre\u0161ovsk\u00fd kraj;Pre\u0161ov"},{"stopID":1030000087,"stopName":"Gre\u0161ova","stopRawName":"Pre\u0161ov, Gre\u0161ova","stopCity":"Pre\u0161ov","latitude":null,"longitude":null,"iconName":"stop_urban","forUrbanPublicTransport":true,"forBusTransport":false,"forRail":false,"POIData":false,"platforms":[{"platformNumber":1,"latitude":48.9932,"longitude":21.2456,"tooltip":"Gre\u0161ova"},{"platformNumber":2,"latitude":48.9932,"longitude":21.2456,"tooltip":"Gre\u0161ova"}],"ezLines":["10","15","19","21","29"],"ezStopTypeName":"Navigation.StopType.Urban","passingLines":{"1":[{"lineType":"bus","lines":["15","19","29"]}],"2":[{"lineType":"bus","lines":["10","21"]}]},"subRegion":"SK;Pre\u0161ovsk\u00fd kraj;Pre\u0161ov"},{"stopID":1030000172,"stopName":"Zimn\u00fd \u0161tadi\u00f3n","stopRawName":"Pre\u0161ov, Zimn\u00fd \u0161tadi\u00f3n","stopCity":"Pre\u0161ov","latitude":null,"longitude":null,"iconName":"stop_urban","forUrbanPublicTransport":true,"forBusTransport":false,"forRail":false,"POIData":false,"platforms":[{"platformNumber":1,"latitude":48.9878,"longitude":21.2292,"tooltip":"Zimn\u00fd \u0161tadi\u00f3n"},{"platformNumber":2,"latitude":48.9878,"longitude":21.2292,"tooltip":"Zimn\u00fd \u0161tadi\u00f3n"}],"ezLines":["15","43"],"ezStopTypeName":"Navigation.StopType.Urban","passingLines":{"1":[{"lineType":"bus","lines":["15","43"]}],"2":[{"lineType":"bus","lines":["15"]}]},"subRegion":"SK;Pre\u0161ovsk\u00fd kraj;Pre\u0161ov"},{"stopID":1030000107,"stopName":"Tul\u010d\u00edcka","stopRawName":"Ve\u013ek\u00fd \u0160ari\u0161, Tul\u010d\u00edcka","stopCity":"Ve\u013ek\u00fd \u0160ari\u0161","latitude":null,"longitude":null,"iconName":"stop_urban","forUrbanPublicTransport":true,"forBusTransport":false,"forRail":false,"POIData":false,"platforms":[{"platformNumber":1,"latitude":49.0337,"longitude":21.1943,"tooltip":"Tul\u010d\u00edcka"},{"platformNumber":2,"latitude":49.0337,"longitude":21.1943,"tooltip":"Tul\u010d\u00edcka"}],"ezLines":["21"],"ezStopTypeName":"Navigation.StopType.Urban","passingLines":{"1":[{"lineType":"bus","lines":["21"]}],"2":[{"lineType":"bus","lines":["21"]}]},"subRegion":"SK;Pre\u0161ovsk\u00fd kraj;Pre\u0161ov"},{"stopID":16851,"stopName":"Vydumanec","stopRawName":"Pre\u0161ov, Vydumanec","stopCity":"Pre\u0161ov","latitude":null,"longitude":null,"iconName":"stop","forUrbanPublicTransport":false,"forBusTransport":true,"forRail":false,"POIData":false,"platforms":[{"platformNumber":1,"latitude":48.99221,"longitude":21.196699,"tooltip":"Pre\u0161ov, Vydumanec"},{"platformNumber":2,"latitude":48.99221,"longitude":21.196699,"tooltip":"Pre\u0161ov, Vydumanec"}],"ezLines":["707416","707417"],"ezStopTypeName":"Navigation.StopType.Bus","passingLines":[],"subRegion":"SK;Pre\u0161ovsk\u00fd kraj;Pre\u0161ov"},{"stopID":1030000135,"stopName":"\u0160idlovec","stopRawName":"Pre\u0161ov, \u0160idlovec","stopCity":"Pre\u0161ov","latitude":null,"longitude":null,"iconName":"stop_urban","forUrbanPublicTransport":true,"forBusTransport":false,"forRail":false,"POIData":false,"platforms":[{"platformNumber":1,"latitude":49.0329,"longitude":21.2481,"tooltip":"\u0160idlovec"},{"platformNumber":2,"latitude":49.0329,"longitude":21.2481,"tooltip":"\u0160idlovec"}],"ezLines":["12","22"],"ezStopTypeName":"Navigation.StopType.Urban","passingLines":{"1":[{"lineType":"bus","lines":["12","22"]}],"2":[{"lineType":"bus","lines":["12","22"]}]},"subRegion":"SK;Pre\u0161ovsk\u00fd kraj;Pre\u0161ov"},{"stopID":1030000222,"stopName":"Ku Brezin\u00e1m","stopRawName":"Pre\u0161ov, Ku Brezin\u00e1m","stopCity":"Pre\u0161ov","latitude":null,"longitude":null,"iconName":"stop_urban","forUrbanPublicTransport":true,"forBusTransport":false,"forRail":false,"POIData":false,"platforms":[{"platformNumber":1,"latitude":48.9872,"longitude":21.2248,"tooltip":"Ku Brezin\u00e1m"},{"platformNumber":2,"latitude":48.9872,"longitude":21.2248,"tooltip":"Ku Brezin\u00e1m"}],"ezLines":["27"],"ezStopTypeName":"Navigation.StopType.Urban","passingLines":{"1":[{"lineType":"bus","lines":["27"]}],"2":[{"lineType":"bus","lines":["27"]}]},"subRegion":"SK;Pre\u0161ovsk\u00fd kraj;Pre\u0161ov"},{"stopID":16835,"stopName":"r\u00e1zc.","stopRawName":"Mal\u00fd \u0160ari\u0161, r\u00e1zc.","stopCity":"Mal\u00fd \u0160ari\u0161","latitude":null,"longitude":null,"iconName":"stop","forUrbanPublicTransport":false,"forBusTransport":true,"forRail":false,"POIData":false,"platforms":[{"platformNumber":1,"latitude":49.00388,"longitude":21.18252,"tooltip":"Mal\u00fd \u0160ari\u0161, r\u00e1zc."},{"platformNumber":2,"latitude":49.00388,"longitude":21.18252,"tooltip":"Mal\u00fd \u0160ari\u0161, r\u00e1zc."}],"ezLines":["707418","707419","707421","707424"],"ezStopTypeName":"Navigation.StopType.Bus","passingLines":[],"subRegion":"SK;Pre\u0161ovsk\u00fd kraj;Pre\u0161ov"},{"stopID":1030000090,"stopName":"Moyzesova","stopRawName":"Pre\u0161ov, Moyzesova","stopCity":"Pre\u0161ov","latitude":null,"longitude":null,"iconName":"stop_urban","forUrbanPublicTransport":true,"forBusTransport":false,"forRail":false,"POIData":false,"platforms":[{"platformNumber":1,"latitude":48.9952,"longitude":21.2503,"tooltip":"Moyzesova"},{"platformNumber":2,"latitude":48.9952,"longitude":21.2503,"tooltip":"Moyzesova"}],"ezLines":["10","15","19","29"],"ezStopTypeName":"Navigation.StopType.Urban","passingLines":{"1":[{"lineType":"bus","lines":["10"]}],"2":[{"lineType":"bus","lines":["15","19","29"]}]},"subRegion":"SK;Pre\u0161ovsk\u00fd kraj;Pre\u0161ov"},{"stopID":1030000069,"stopName":"Pavl. n\u00e1mestie","stopRawName":"Pre\u0161ov, Pavl. n\u00e1mestie","stopCity":"Pre\u0161ov","latitude":null,"longitude":null,"iconName":"stop_urban","forUrbanPublicTransport":true,"forBusTransport":false,"forRail":false,"POIData":false,"platforms":[{"platformNumber":1,"latitude":48.9902,"longitude":21.241,"tooltip":"Pavl. n\u00e1mestie"},{"platformNumber":2,"latitude":48.9902,"longitude":21.241,"tooltip":"Pavl. n\u00e1mestie"}],"ezLines":["12"],"ezStopTypeName":"Navigation.StopType.Urban","passingLines":{"1":[{"lineType":"bus","lines":["12"]}],"2":[{"lineType":"bus","lines":["12"]}]},"subRegion":"SK;Pre\u0161ovsk\u00fd kraj;Pre\u0161ov"},{"stopID":16565,"stopName":"Fakultn\u00e1 nemocnica","stopRawName":"Pre\u0161ov, Fakultn\u00e1 nemocnica","stopCity":"Pre\u0161ov","latitude":null,"longitude":null,"iconName":"stop","forUrbanPublicTransport":false,"forBusTransport":true,"forRail":false,"POIData":false,"platforms":[{"platformNumber":1,"latitude":48.99638,"longitude":21.252529,"tooltip":"Pre\u0161ov, Fakultn\u00e1 nemocnica"},{"platformNumber":2,"latitude":48.99638,"longitude":21.252529,"tooltip":"Pre\u0161ov, Fakultn\u00e1 nemocnica"}],"ezLines":["701412","701501","702412","704403","707418","707430","707431","707432","707435","707436","707437","707438","707442","707444","707445","707446","707447","707448","707449","707452","708403","708411","708465","710442","711406","711406","712413","712414","712415","712459","713407","713423","802433","802435","807424","811431"],"ezStopTypeName":"Navigation.StopType.Bus","passingLines":[],"subRegion":"SK;Pre\u0161ovsk\u00fd kraj;Pre\u0161ov"},{"stopID":1030000073,"stopName":"Holl\u00e9ho","stopRawName":"Pre\u0161ov, Holl\u00e9ho","stopCity":"Pre\u0161ov","latitude":null,"longitude":null,"iconName":"stop_urban","forUrbanPublicTransport":true,"forBusTransport":false,"forRail":false,"POIData":false,"platforms":[{"platformNumber":1,"latitude":48.9964,"longitude":21.2526,"tooltip":"Holl\u00e9ho"},{"platformNumber":2,"latitude":48.9964,"longitude":21.2526,"tooltip":"Holl\u00e9ho"}],"ezLines":["10","12","15","19","21","29","35","43"],"ezStopTypeName":"Navigation.StopType.Urban","passingLines":{"1":[{"lineType":"bus","lines":["10","12","15","19","21","29","35","43"]}],"2":[{"lineType":"bus","lines":["10","12","19","21"]}]},"subRegion":"SK;Pre\u0161ovsk\u00fd kraj;Pre\u0161ov"},{"stopID":1030000098,"stopName":"Kpt. N\u00e1lepku","stopRawName":"Pre\u0161ov, Kpt. N\u00e1lepku","stopCity":"Pre\u0161ov","latitude":null,"longitude":null,"iconName":"stop_urban","forUrbanPublicTransport":true,"forBusTransport":false,"forRail":false,"POIData":false,"platforms":[{"platformNumber":1,"latitude":48.9926,"longitude":21.2469,"tooltip":"Kpt. N\u00e1lepku"},{"platformNumber":2,"latitude":48.9926,"longitude":21.2469,"tooltip":"Kpt. N\u00e1lepku"}],"ezLines":["11","13","14","21","22","24","42","43","44","46"],"ezStopTypeName":"Navigation.StopType.Urban","passingLines":{"1":[{"lineType":"bus","lines":["21","22","24","43","44"]}],"2":[{"lineType":"bus","lines":["11","13","14","42","46"]}]},"subRegion":"SK;Pre\u0161ovsk\u00fd kraj;Pre\u0161ov"},{"stopID":1030000113,"stopName":"R\u00e1zc. M. \u0160ari\u0161","stopRawName":"Mal\u00fd \u0160ari\u0161, R\u00e1zc. M. \u0160ari\u0161","stopCity":"Mal\u00fd \u0160ari\u0161","latitude":null,"longitude":null,"iconName":"stop_urban","forUrbanPublicTransport":true,"forBusTransport":false,"forRail":false,"POIData":false,"platforms":[{"platformNumber":1,"latitude":49.0045,"longitude":21.1812,"tooltip":"R\u00e1zc. M. \u0160ari\u0161"},{"platformNumber":2,"latitude":49.0045,"longitude":21.1812,"tooltip":"R\u00e1zc. M. \u0160ari\u0161"}],"ezLines":["21"],"ezStopTypeName":"Navigation.StopType.Urban","passingLines":{"1":[{"lineType":"bus","lines":["21"]}],"2":[{"lineType":"bus","lines":["21"]}]},"subRegion":"SK;Pre\u0161ovsk\u00fd kraj;Pre\u0161ov"}]}