{"status":"ok","stops":[{"stopID":1030000075,"stopName":"Pod T\u00e1borom","stopRawName":"Pre\u0161ov, Pod T\u00e1borom","stopCity":"Pre\u0161ov","latitude":null,"longitude":null,"iconName":"stop_urban","forUrbanPublicTransport":true,"forBusTransport":false,"forRail":false,"POIData":false,"platforms":[{"platformNumber":1,"latitude":48.9914,"longitude":21.2515,"tooltip":"Pod T\u00e1borom"},{"platformNumber":2,"latitude":48.9914,"longitude":21.2515,"tooltip":"Pod T\u00e1borom"}],"ezLines":["12","22"],"ezStopTypeName":"Navigation.StopType.Urban","passingLines":{"1":[{"lineType":"bus","lines":["12","22"]}],"2":[{"lineType":"bus","lines":["12","22"]}]},"subRegion":"SK;Pre\u0161ovsk\u00fd kraj;Pre\u0161ov"},{"stopID":1030000236,"stopName":"Plzensk\u00e1","stopRawName":"Pre\u0161ov, Plzensk\u00e1","stopCity":"Pre\u0161ov","latitude":null,"longitude":null,"iconName":"stop_urban","forUrbanPublicTransport":true,"forBusTransport":false,"forRail":false,"POIData":false,"platforms":[{"platformNumber":1,"latitude":48.9913,"longitude":21.2487,"tooltip":"Plzensk\u00e1"},{"platformNumber":2,"latitude":48.9913,"longitude":21.2487,"tooltip":"Plzensk\u00e1"}],"ezLines":["11","22"],"ezStopTypeName":"Navigation.StopType.Urban","passingLines":{"1":[{"lineType":"bus","lines":["11"]}],"2":[{"lineType":"bus","lines":["22"]}]},"subRegion":"SK;Pre\u0161ovsk\u00fd kraj;Pre\u0161ov"},{"stopID":1030000011,"stopName":"\u010cierny most","stopRawName":"Pre\u0161ov, \u010cierny most","stopCity":"Pre\u0161ov","latitude":null,"longitude":null,"iconName":"stop_urban","forUrbanPublicTransport":true,"forBusTransport":false,"forRail":false,"POIData":false,"platforms":[{"platformNumber":1,"latitude":48.9893,"longitude":21.2471,"tooltip":"\u010cierny most"},{"platformNumber":2,"latitude":48.9893,"longitude":21.2471,"tooltip":"\u010cierny most"}],"ezLines":["1","10","13","14","19","2","24","26","27","28","32","32A","36","39","4","42","44","45","46","5","7","8","N2"],"ezStopTypeName":"Navigation.StopType.Urban","passingLines":{"1":[{"lineType":"bus","lines":["1","10","13","14","19","2","24","26","27","28","32","32A","36","39","4","42","44","45","46","5","7","8","N2"]}],"2":[{"lineType":"bus","lines":["1","10","13","14","19","2","24","26","27","28","32","36","39","4","42","44","45","46","5","7","8","N2"]}]},"subRegion":"SK;Pre\u0161ovsk\u00fd kraj;Pre\u0161ov"},{"stopID":1030000865,"stopName":"Les\u00edk delostrelcov","stopRawName":"Pre\u0161ov, Les\u00edk delostrelcov","stopCity":"Pre\u0161ov","latitude":null,"longitude":null,"iconName":"stop_urban","forUrbanPublicTransport":true,"forBusTransport":false,"forRail":false,"POIData":false,"platforms":[{"platformNumber":1,"latitude":48.9925,"longitude":21.2496,"tooltip":"Les\u00edk delostrelcov"},{"platformNumber":2,"latitude":48.9925,"longitude":21.2496,"tooltip":"Les\u00edk delostrelcov"}],"ezLines":["11","12","22","35"],"ezStopTypeName":"Navigation.StopType.Urban","passingLines":{"1":[{"lineType":"bus","lines":["12","22","35"]}],"2":[{"lineType":"bus","lines":["11","12"]}]},"subRegion":"SK;Pre\u0161ovsk\u00fd kraj;Pre\u0161ov"},{"stopID":1030000098,"stopName":"Kpt. N\u00e1lepku","stopRawName":"Pre\u0161ov, Kpt. N\u00e1lepku","stopCity":"Pre\u0161ov","latitude":null,"longitude":null,"iconName":"stop_urban","forUrbanPublicTransport":true,"forBusTransport":false,"forRail":false,"POIData":false,"platforms":[{"platformNumber":1,"latitude":48.9926,"longitude":21.2469,"tooltip":"Kpt. N\u00e1lepku"},{"platformNumber":2,"latitude":48.9926,"longitude":21.2469,"tooltip":"Kpt. N\u00e1lepku"}],"ezLines":["11","13","14","21","22","24","42","43","44","46"],"ezStopTypeName":"Navigation.StopType.Urban","passingLines":{"1":[{"lineType":"bus","lines":["21","22","24","43","44"]}],"2":[{"lineType":"bus","lines":["11","13","14","42","46"]}]},"subRegion":"SK;Pre\u0161ovsk\u00fd kraj;Pre\u0161ov"},{"stopID":1030000010,"stopName":"Ve\u013ek\u00e1 po\u0161ta","stopRawName":"Pre\u0161ov, Ve\u013ek\u00e1 po\u0161ta","stopCity":"Pre\u0161ov","latitude":null,"longitude":null,"iconName":"stop_urban","forUrbanPublicTransport":true,"forBusTransport":false,"forRail":false,"POIData":false,"platforms":[{"platformNumber":1,"latitude":48.9915,"longitude":21.2453,"tooltip":"Ve\u013ek\u00e1 po\u0161ta"},{"platformNumber":2,"latitude":48.9915,"longitude":21.2453,"tooltip":"Ve\u013ek\u00e1 po\u0161ta"}],"ezLines":["1","10","11","12","13","14","18","19","2","22","24","26","27","28","32","36","39","4","41","42","44","45","46","5","7","8","N2"],"ezStopTypeName":"Navigation.StopType.Urban","passingLines":{"1":[{"lineType":"bus","lines":["1","10","11","13","14","18","26","28","39","4","42","45","46","8"]}],"2":[{"lineType":"bus","lines":["12","19","2","22","24","27","32","36","41","44","5","7","N2"]}]},"subRegion":"SK;Pre\u0161ovsk\u00fd kraj;Pre\u0161ov"},{"stopID":1030000087,"stopName":"Gre\u0161ova","stopRawName":"Pre\u0161ov, Gre\u0161ova","stopCity":"Pre\u0161ov","latitude":null,"longitude":null,"iconName":"stop_urban","forUrbanPublicTransport":true,"forBusTransport":false,"forRail":false,"POIData":false,"platforms":[{"platformNumber":1,"latitude":48.9932,"longitude":21.2456,"tooltip":"Gre\u0161ova"},{"platformNumber":2,"latitude":48.9932,"longitude":21.2456,"tooltip":"Gre\u0161ova"}],"ezLines":["10","15","19","21","29"],"ezStopTypeName":"Navigation.StopType.Urban","passingLines":{"1":[{"lineType":"bus","lines":["15","19","29"]}],"2":[{"lineType":"bus","lines":["10","21"]}]},"subRegion":"SK;Pre\u0161ovsk\u00fd kraj;Pre\u0161ov"},{"stopID":1030000440,"stopName":"V\u00fdchodn\u00e1","stopRawName":"Pre\u0161ov, V\u00fdchodn\u00e1","stopCity":"Pre\u0161ov","latitude":null,"longitude":null,"iconName":"stop_urban","forUrbanPublicTransport":true,"forBusTransport":false,"forRail":false,"POIData":false,"platforms":[{"platformNumber":1,"latitude":48.984793,"longitude":21.25243,"tooltip":"V\u00fdchodn\u00e1"},{"platformNumber":2,"latitude":48.984793,"longitude":21.25243,"tooltip":"V\u00fdchodn\u00e1"}],"ezLines":["11"],"ezStopTypeName":"Navigation.StopType.Urban","passingLines":{"1":[{"lineType":"bus","lines":["11"]}],"2":[{"lineType":"bus","lines":["11"]}]},"subRegion":"SK;Pre\u0161ovsk\u00fd kraj;Pre\u0161ov"},{"stopID":8496,"stopName":"AS","stopRawName":"Pre\u0161ov, AS","stopCity":"Pre\u0161ov","latitude":null,"longitude":null,"iconName":"stop","forUrbanPublicTransport":false,"forBusTransport":true,"forRail":false,"POIData":false,"platforms":[{"platformNumber":1,"latitude":48.98459,"longitude":21.25098,"tooltip":"Pre\u0161ov, AS, n\u00e1st. 1"},{"platformNumber":2,"latitude":48.98519,"longitude":21.25101,"tooltip":"Pre\u0161ov, AS, n\u00e1st. 2"},{"platformNumber":3,"latitude":48.98459,"longitude":21.25098,"tooltip":"Pre\u0161ov, AS, n\u00e1st. 3"},{"platformNumber":4,"latitude":48.98459,"longitude":21.25098,"tooltip":"Pre\u0161ov, AS, n\u00e1st. 4"},{"platformNumber":5,"latitude":48.98459,"longitude":21.25098,"tooltip":"Pre\u0161ov, AS, n\u00e1st. 5"},{"platformNumber":6,"latitude":48.98459,"longitude":21.25098,"tooltip":"Pre\u0161ov, AS, n\u00e1st. 6"},{"platformNumber":7,"latitude":48.98459,"longitude":21.25098,"tooltip":"Pre\u0161ov, AS, n\u00e1st. 7"},{"platformNumber":8,"latitude":48.98459,"longitude":21.25098,"tooltip":"Pre\u0161ov, AS, n\u00e1st. 8"},{"platformNumber":9,"latitude":48.98459,"longitude":21.25098,"tooltip":"Pre\u0161ov, AS, n\u00e1st. 9"},{"platformNumber":10,"latitude":48.98459,"longitude":21.25098,"tooltip":"Pre\u0161ov, AS, n\u00e1st. 10"},{"platformNumber":11,"latitude":48.98459,"longitude":21.25098,"tooltip":"Pre\u0161ov, AS, n\u00e1st. 11"},{"platformNumber":12,"latitude":48.98459,"longitude":21.25098,"tooltip":"Pre\u0161ov, AS, n\u00e1st. 12"},{"platformNumber":13,"latitude":48.98459,"longitude":21.25098,"tooltip":"Pre\u0161ov, AS, n\u00e1st. 13"},{"platformNumber":14,"latitude":48.98459,"longitude":21.25098,"tooltip":"Pre\u0161ov, AS, n\u00e1st. 14"},{"platformNumber":15,"latitude":48.98459,"longitude":21.25098,"tooltip":"Pre\u0161ov, AS, n\u00e1st. 15"},{"platformNumber":16,"latitude":48.98459,"longitude":21.25098,"tooltip":"Pre\u0161ov, AS, n\u00e1st. 16"},{"platformNumber":17,"latitude":48.98459,"longitude":21.25098,"tooltip":"Pre\u0161ov, AS, n\u00e1st. 17"},{"platformNumber":18,"latitude":48.98459,"longitude":21.25098,"tooltip":"Pre\u0161ov, AS, n\u00e1st. 18"},{"platformNumber":19,"latitude":48.98459,"longitude":21.25098,"tooltip":"Pre\u0161ov, AS, n\u00e1st. 19"},{"platformNumber":20,"latitude":48.98459,"longitude":21.25098,"tooltip":"Pre\u0161ov, AS, n\u00e1st. 20"},{"platformNumber":21,"latitude":48.98459,"longitude":21.25098,"tooltip":"Pre\u0161ov, AS, n\u00e1st. 21"},{"platformNumber":22,"latitude":48.98459,"longitude":21.25098,"tooltip":"Pre\u0161ov, AS, n\u00e1st. 22"},{"platformNumber":23,"latitude":48.98459,"longitude":21.25098,"tooltip":"Pre\u0161ov, AS, n\u00e1st. 23"},{"platformNumber":24,"latitude":48.98459,"longitude":21.25098,"tooltip":"Pre\u0161ov, AS, n\u00e1st. 24"},{"platformNumber":26,"latitude":48.98459,"longitude":21.25098,"tooltip":"Pre\u0161ov, AS, n\u00e1st. 26"}],"ezLines":["105956","701412","701501","701506","702412","704403","704410","707401","707403","707405","707407","707408","707410","707416","707417","707418","707419","707421","707424","707430","707431","707432","707435","707436","707437","707438","707442","707444","707445","707446","707447","707448","707449","707452","707453","707902","708403","708411","708459","708465","709702","710442","711406","711406","712413","712414","712415","712459","713407","713423","802433","802434","802435","802855","807424","807821","807822","810416","811416","811431"],"ezStopTypeName":"Navigation.StopType.Bus","passingLines":[],"subRegion":"SK;Pre\u0161ovsk\u00fd kraj;Pre\u0161ov"},{"stopID":1030000090,"stopName":"Moyzesova","stopRawName":"Pre\u0161ov, Moyzesova","stopCity":"Pre\u0161ov","latitude":null,"longitude":null,"iconName":"stop_urban","forUrbanPublicTransport":true,"forBusTransport":false,"forRail":false,"POIData":false,"platforms":[{"platformNumber":1,"latitude":48.9952,"longitude":21.2503,"tooltip":"Moyzesova"},{"platformNumber":2,"latitude":48.9952,"longitude":21.2503,"tooltip":"Moyzesova"}],"ezLines":["10","15","19","29"],"ezStopTypeName":"Navigation.StopType.Urban","passingLines":{"1":[{"lineType":"bus","lines":["10"]}],"2":[{"lineType":"bus","lines":["15","19","29"]}]},"subRegion":"SK;Pre\u0161ovsk\u00fd kraj;Pre\u0161ov"},{"stopID":1030000238,"stopName":"Divadlo Jon\u00e1\u0161a Z\u00e1borsk\u00e9ho","stopRawName":"Pre\u0161ov, Divadlo Jon\u00e1\u0161a Z\u00e1borsk\u00e9ho","stopCity":"Pre\u0161ov","latitude":null,"longitude":null,"iconName":"stop_urban","forUrbanPublicTransport":true,"forBusTransport":false,"forRail":false,"POIData":false,"platforms":[{"platformNumber":1,"latitude":48.9933,"longitude":21.244,"tooltip":"Divadlo Jon\u00e1\u0161a Z\u00e1borsk\u00e9ho"},{"platformNumber":2,"latitude":48.9933,"longitude":21.244,"tooltip":"Divadlo Jon\u00e1\u0161a Z\u00e1borsk\u00e9ho"}],"ezLines":["1","11","12","14","15","18","2","21","22","24","27","28","29","32","36","39","4","41","45","5","7","8","N2"],"ezStopTypeName":"Navigation.StopType.Urban","passingLines":{"1":[{"lineType":"bus","lines":["12","2","21","22","24","27","32","36","41","5","7","N2"]}],"2":[{"lineType":"bus","lines":["1","11","14","15","18","28","29","39","4","45","8"]}]},"subRegion":"SK;Pre\u0161ovsk\u00fd kraj;Pre\u0161ov"},{"stopID":1030000069,"stopName":"Pavl. n\u00e1mestie","stopRawName":"Pre\u0161ov, Pavl. n\u00e1mestie","stopCity":"Pre\u0161ov","latitude":null,"longitude":null,"iconName":"stop_urban","forUrbanPublicTransport":true,"forBusTransport":false,"forRail":false,"POIData":false,"platforms":[{"platformNumber":1,"latitude":48.9902,"longitude":21.241,"tooltip":"Pavl. n\u00e1mestie"},{"platformNumber":2,"latitude":48.9902,"longitude":21.241,"tooltip":"Pavl. n\u00e1mestie"}],"ezLines":["12"],"ezStopTypeName":"Navigation.StopType.Urban","passingLines":{"1":[{"lineType":"bus","lines":["12"]}],"2":[{"lineType":"bus","lines":["12"]}]},"subRegion":"SK;Pre\u0161ovsk\u00fd kraj;Pre\u0161ov"},{"stopID":1030000074,"stopName":"Ni\u017en\u00e9 l\u00faky","stopRawName":"Pre\u0161ov, Ni\u017en\u00e9 l\u00faky","stopCity":"Pre\u0161ov","latitude":null,"longitude":null,"iconName":"stop_urban","forUrbanPublicTransport":true,"forBusTransport":false,"forRail":false,"POIData":false,"platforms":[{"platformNumber":1,"latitude":48.993,"longitude":21.2586,"tooltip":"Ni\u017en\u00e9 l\u00faky"},{"platformNumber":2,"latitude":48.993,"longitude":21.2586,"tooltip":"Ni\u017en\u00e9 l\u00faky"}],"ezLines":["12","22"],"ezStopTypeName":"Navigation.StopType.Urban","passingLines":{"1":[{"lineType":"bus","lines":["12","22"]}],"2":[{"lineType":"bus","lines":["12","22"]}]},"subRegion":"SK;Pre\u0161ovsk\u00fd kraj;Pre\u0161ov"},{"stopID":1030000012,"stopName":"\u017del. stanica","stopRawName":"Pre\u0161ov, \u017del. stanica","stopCity":"Pre\u0161ov","latitude":null,"longitude":null,"iconName":"stop_urban","forUrbanPublicTransport":true,"forBusTransport":false,"forRail":false,"POIData":false,"platforms":[{"platformNumber":1,"latitude":48.9832,"longitude":21.2499,"tooltip":"\u017del. stanica"},{"platformNumber":2,"latitude":48.9832,"longitude":21.2499,"tooltip":"\u017del. stanica"}],"ezLines":["1","10","14","19","24","26","28","30","37","38","39","4","42","43","45","46","8","N1","N2"],"ezStopTypeName":"Navigation.StopType.Urban","passingLines":{"1":[{"lineType":"bus","lines":["1","10","14","19","24","26","28","30","37","38","39","4","42","43","45","46","8","N1","N2"]}],"2":[{"lineType":"bus","lines":["1","10","14","19","24","26","28","30","37","38","39","4","45","46","8","N1","N2"]}]},"subRegion":"SK;Pre\u0161ovsk\u00fd kraj;Pre\u0161ov"},{"stopID":1030000046,"stopName":"\u0160kult\u00e9tyho","stopRawName":"Pre\u0161ov, \u0160kult\u00e9tyho","stopCity":"Pre\u0161ov","latitude":null,"longitude":null,"iconName":"stop_urban","forUrbanPublicTransport":true,"forBusTransport":false,"forRail":false,"POIData":false,"platforms":[{"platformNumber":1,"latitude":48.9865,"longitude":21.2416,"tooltip":"\u0160kult\u00e9tyho"},{"platformNumber":2,"latitude":48.9865,"longitude":21.2416,"tooltip":"\u0160kult\u00e9tyho"}],"ezLines":["2","27","34","38","43","5","N1"],"ezStopTypeName":"Navigation.StopType.Urban","passingLines":{"1":[{"lineType":"bus","lines":["27","38","43","5","N1"]}],"2":[{"lineType":"bus","lines":["2","27","34","38","N1"]}]},"subRegion":"SK;Pre\u0161ovsk\u00fd kraj;Pre\u0161ov"},{"stopID":1030000039,"stopName":"\u0160t\u00farova","stopRawName":"Pre\u0161ov, \u0160t\u00farova","stopCity":"Pre\u0161ov","latitude":null,"longitude":null,"iconName":"stop_urban","forUrbanPublicTransport":true,"forBusTransport":false,"forRail":false,"POIData":false,"platforms":[{"platformNumber":1,"latitude":48.9853,"longitude":21.2429,"tooltip":"\u0160t\u00farova"},{"platformNumber":2,"latitude":48.9853,"longitude":21.2429,"tooltip":"\u0160t\u00farova"}],"ezLines":["2","30","34","42","5","7"],"ezStopTypeName":"Navigation.StopType.Urban","passingLines":{"1":[{"lineType":"bus","lines":["2","30","34","7"]}],"2":[{"lineType":"bus","lines":["30","42","5","7"]}]},"subRegion":"SK;Pre\u0161ovsk\u00fd kraj;Pre\u0161ov"},{"stopID":16834,"stopName":"\u0160kult\u00e9tyho","stopRawName":"Pre\u0161ov, \u0160kult\u00e9tyho","stopCity":"Pre\u0161ov","latitude":null,"longitude":null,"iconName":"stop","forUrbanPublicTransport":false,"forBusTransport":true,"forRail":false,"POIData":false,"platforms":[{"platformNumber":2,"latitude":48.98649,"longitude":21.24153,"tooltip":"Pre\u0161ov, \u0160kult\u00e9tyho"}],"ezLines":["707416","707417","707418","707419","707421","707424"],"ezStopTypeName":"Navigation.StopType.Bus","passingLines":[],"subRegion":"SK;Pre\u0161ovsk\u00fd kraj;Pre\u0161ov"},{"stopID":16565,"stopName":"Fakultn\u00e1 nemocnica","stopRawName":"Pre\u0161ov, Fakultn\u00e1 nemocnica","stopCity":"Pre\u0161ov","latitude":null,"longitude":null,"iconName":"stop","forUrbanPublicTransport":false,"forBusTransport":true,"forRail":false,"POIData":false,"platforms":[{"platformNumber":1,"latitude":48.99638,"longitude":21.252529,"tooltip":"Pre\u0161ov, Fakultn\u00e1 nemocnica"},{"platformNumber":2,"latitude":48.99638,"longitude":21.252529,"tooltip":"Pre\u0161ov, Fakultn\u00e1 nemocnica"}],"ezLines":["701412","701501","702412","704403","707418","707430","707431","707432","707435","707436","707437","707438","707442","707444","707445","707446","707447","707448","707449","707452","708403","708411","708465","710442","711406","711406","712413","712414","712415","712459","713407","713423","802433","802435","807424","811431"],"ezStopTypeName":"Navigation.StopType.Bus","passingLines":[],"subRegion":"SK;Pre\u0161ovsk\u00fd kraj;Pre\u0161ov"},{"stopID":1030000073,"stopName":"Holl\u00e9ho","stopRawName":"Pre\u0161ov, Holl\u00e9ho","stopCity":"Pre\u0161ov","latitude":null,"longitude":null,"iconName":"stop_urban","forUrbanPublicTransport":true,"forBusTransport":false,"forRail":false,"POIData":false,"platforms":[{"platformNumber":1,"latitude":48.9964,"longitude":21.2526,"tooltip":"Holl\u00e9ho"},{"platformNumber":2,"latitude":48.9964,"longitude":21.2526,"tooltip":"Holl\u00e9ho"}],"ezLines":["10","12","15","19","21","29","35","43"],"ezStopTypeName":"Navigation.StopType.Urban","passingLines":{"1":[{"lineType":"bus","lines":["10","12","15","19","21","29","35","43"]}],"2":[{"lineType":"bus","lines":["10","12","19","21"]}]},"subRegion":"SK;Pre\u0161ovsk\u00fd kraj;Pre\u0161ov"},{"stopID":1030000213,"stopName":"Okru\u017en\u00e1","stopRawName":"Pre\u0161ov, Okru\u017en\u00e1","stopCity":"Pre\u0161ov","latitude":null,"longitude":null,"iconName":"stop_urban","forUrbanPublicTransport":true,"forBusTransport":false,"forRail":false,"POIData":false,"platforms":[{"platformNumber":1,"latitude":48.9931,"longitude":21.2403,"tooltip":"Okru\u017en\u00e1"},{"platformNumber":2,"latitude":48.9931,"longitude":21.2403,"tooltip":"Okru\u017en\u00e1"}],"ezLines":["32","32A"],"ezStopTypeName":"Navigation.StopType.Urban","passingLines":{"1":[{"lineType":"bus","lines":["32A"]}],"2":[{"lineType":"bus","lines":["32"]}]},"subRegion":"SK;Pre\u0161ovsk\u00fd kraj;Pre\u0161ov"},{"stopID":950001088,"stopName":"\u017eel.st.","stopRawName":"Pre\u0161ov, \u017eel.st.","stopCity":"Pre\u0161ov","latitude":null,"longitude":null,"iconName":"stop_train","forUrbanPublicTransport":false,"forBusTransport":false,"forRail":true,"POIData":false,"platforms":[{"platformNumber":0,"latitude":48.982111,"longitude":21.249211,"tooltip":"Pre\u0161ov, \u017eel.st."}],"ezLines":["Os 8500","Os 8501","Os 8502","Os 8503","Os 8504","Os 8505","Os 8506","Os 8507","Os 8508","Os 8510","Os 8511","Os 8512","Os 8513","Os 8514","Os 8515","Os 8516","Os 8517","Os 8518","Os 8519","Os 8520","Os 8521","Os 8522","Os 8523","Os 8524","Os 8525","Os 8526","Os 8527","Os 8528","Os 8529","Os 8530","Os 8533","Os 8536","Os 8550","Os 8551","Os 8552","Os 8553","Os 8554","Os 8555","Os 8557","Os 8584","Os 8586","Os 9100","Os 9101","Os 9102","Os 9103","Os 9104","Os 9105","Os 9108","Os 9111","Os 9112","Os 9115","Os 9116","Os 9119","Os 9120","Os 9121","Os 9123","Os 9124","Os 9127","Os 9128","Os 9131","Os 9132","Os 9135","Os 9140","Os 9141","Os 9180","Os 9181","Os 9183","Os 9201","Os 9202","Os 9204","Os 9205","Os 9208","Os 9209","Os 9212","Os 9213","Os 9216","Os 9217","Os 9220","Os 9221","Os 9224","Os 9225","Os 9228","Os 9229","Os 9236","Os 9239","Os 9280","Os 9281","Os 9282","Os 9283","Os 9284","R 800","R 801","REX 1930","REX 1931","REX 1932","REX 1933","REX 1934","REX 1935","REX 1936","REX 1937","REX 1939","RR 15711","RR 17612"],"ezStopTypeName":"Navigation.StopType.Train","passingLines":[],"subRegion":"SK;Pre\u0161ovsk\u00fd kraj;Pre\u0161ov"},{"stopID":1030000089,"stopName":"Sl\u00e1dkovi\u010dova","stopRawName":"Pre\u0161ov, Sl\u00e1dkovi\u010dova","stopCity":"Pre\u0161ov","latitude":null,"longitude":null,"iconName":"stop_urban","forUrbanPublicTransport":true,"forBusTransport":false,"forRail":false,"POIData":false,"platforms":[{"platformNumber":1,"latitude":48.9975,"longitude":21.2485,"tooltip":"Sl\u00e1dkovi\u010dova"},{"platformNumber":2,"latitude":48.9975,"longitude":21.2485,"tooltip":"Sl\u00e1dkovi\u010dova"}],"ezLines":["10","15","19","29"],"ezStopTypeName":"Navigation.StopType.Urban","passingLines":{"1":[{"lineType":"bus","lines":["10"]}],"2":[{"lineType":"bus","lines":["15","19","29"]}]},"subRegion":"SK;Pre\u0161ovsk\u00fd kraj;Pre\u0161ov"},{"stopID":1030000629,"stopName":"Hobby park","stopRawName":"Pre\u0161ov, Hobby park","stopCity":"Pre\u0161ov","latitude":null,"longitude":null,"iconName":"stop_urban","forUrbanPublicTransport":true,"forBusTransport":false,"forRail":false,"POIData":false,"platforms":[{"platformNumber":1,"latitude":48.991382,"longitude":21.262302,"tooltip":"Hobby park"},{"platformNumber":2,"latitude":48.991382,"longitude":21.262302,"tooltip":"Hobby park"}],"ezLines":["13","32","35","44"],"ezStopTypeName":"Navigation.StopType.Urban","passingLines":{"1":[{"lineType":"bus","lines":["32","35","44"]}],"2":[{"lineType":"bus","lines":["13"]}]},"subRegion":"SK;Pre\u0161ovsk\u00fd kraj;Pre\u0161ov"},{"stopID":1030000009,"stopName":"Na Hlavnej","stopRawName":"Pre\u0161ov, Na Hlavnej","stopCity":"Pre\u0161ov","latitude":null,"longitude":null,"iconName":"stop_urban","forUrbanPublicTransport":true,"forBusTransport":false,"forRail":false,"POIData":false,"platforms":[{"platformNumber":1,"latitude":48.9957,"longitude":21.2421,"tooltip":"Na Hlavnej"},{"platformNumber":2,"latitude":48.9957,"longitude":21.2421,"tooltip":"Na Hlavnej"}],"ezLines":["1","11","12","14","15","18","2","21","22","24","27","28","29","32","36","39","4","41","45","5","7","8","N2"],"ezStopTypeName":"Navigation.StopType.Urban","passingLines":{"1":[{"lineType":"bus","lines":["1","11","12","14","15","18","2","21","22","24","27","28","32","36","39","4","41","45","5","7","8","N2"]}],"2":[{"lineType":"bus","lines":["1","11","12","14","15","18","2","21","22","24","27","28","29","32","36","39","4","41","45","5","7","8","N2"]}]},"subRegion":"SK;Pre\u0161ovsk\u00fd kraj;Pre\u0161ov"},{"stopID":1030000068,"stopName":"K\u00fape\u013en\u00e1","stopRawName":"Pre\u0161ov, K\u00fape\u013en\u00e1","stopCity":"Pre\u0161ov","latitude":null,"longitude":null,"iconName":"stop_urban","forUrbanPublicTransport":true,"forBusTransport":false,"forRail":false,"POIData":false,"platforms":[{"platformNumber":1,"latitude":48.9917,"longitude":21.2384,"tooltip":"K\u00fape\u013en\u00e1"},{"platformNumber":2,"latitude":48.9917,"longitude":21.2384,"tooltip":"K\u00fape\u013en\u00e1"}],"ezLines":["12"],"ezStopTypeName":"Navigation.StopType.Urban","passingLines":{"1":[{"lineType":"bus","lines":["12"]}],"2":[{"lineType":"bus","lines":["12"]}]},"subRegion":"SK;Pre\u0161ovsk\u00fd kraj;Pre\u0161ov"},{"stopID":1030000198,"stopName":"Rus\u00ednska","stopRawName":"Pre\u0161ov, Rus\u00ednska","stopCity":"Pre\u0161ov","latitude":null,"longitude":null,"iconName":"stop_urban","forUrbanPublicTransport":true,"forBusTransport":false,"forRail":false,"POIData":false,"platforms":[{"platformNumber":1,"latitude":48.9912,"longitude":21.2628,"tooltip":"Rus\u00ednska"},{"platformNumber":2,"latitude":48.9912,"longitude":21.2628,"tooltip":"Rus\u00ednska"}],"ezLines":["13","32","32A","35","36","44"],"ezStopTypeName":"Navigation.StopType.Urban","passingLines":{"1":[{"lineType":"bus","lines":["13","32","32A","35","36","44"]}],"2":[{"lineType":"bus","lines":["13","32","36","44"]}]},"subRegion":"SK;Pre\u0161ovsk\u00fd kraj;Pre\u0161ov"},{"stopID":1030000038,"stopName":"Priemyseln\u00e9 centrum","stopRawName":"Pre\u0161ov, Priemyseln\u00e9 centrum","stopCity":"Pre\u0161ov","latitude":null,"longitude":null,"iconName":"stop_urban","forUrbanPublicTransport":true,"forBusTransport":false,"forRail":false,"POIData":false,"platforms":[{"platformNumber":1,"latitude":48.9828,"longitude":21.2434,"tooltip":"Priemyseln\u00e9 centrum"},{"platformNumber":2,"latitude":48.9828,"longitude":21.2434,"tooltip":"Priemyseln\u00e9 centrum"}],"ezLines":["2","30","34","42","5","7"],"ezStopTypeName":"Navigation.StopType.Urban","passingLines":{"1":[{"lineType":"bus","lines":["2","30","34","7"]}],"2":[{"lineType":"bus","lines":["30","34","42","5","7"]}]},"subRegion":"SK;Pre\u0161ovsk\u00fd kraj;Pre\u0161ov"},{"stopID":1030000072,"stopName":"Nemocnica","stopRawName":"Pre\u0161ov, Nemocnica","stopCity":"Pre\u0161ov","latitude":null,"longitude":null,"iconName":"stop_urban","forUrbanPublicTransport":true,"forBusTransport":false,"forRail":false,"POIData":false,"platforms":[{"platformNumber":1,"latitude":48.9986,"longitude":21.2509,"tooltip":"Nemocnica"},{"platformNumber":2,"latitude":48.9986,"longitude":21.2509,"tooltip":"Nemocnica"}],"ezLines":["10","12","15","19","21","29","35","43"],"ezStopTypeName":"Navigation.StopType.Urban","passingLines":{"1":[{"lineType":"bus","lines":["10","12","15","21","29","35","43"]}],"2":[{"lineType":"bus","lines":["12","15","19","21","29"]}]},"subRegion":"SK;Pre\u0161ovsk\u00fd kraj;Pre\u0161ov"},{"stopID":23416,"stopName":"Priemyseln\u00e9 centrum","stopRawName":"Pre\u0161ov, Priemyseln\u00e9 centrum","stopCity":"Pre\u0161ov","latitude":null,"longitude":null,"iconName":"stop","forUrbanPublicTransport":false,"forBusTransport":true,"forRail":false,"POIData":false,"platforms":[{"platformNumber":1,"latitude":48.981705,"longitude":21.243634,"tooltip":"Pre\u0161ov, Priemyseln\u00e9 centrum"}],"ezLines":["707421"],"ezStopTypeName":"Navigation.StopType.Bus","passingLines":[],"subRegion":"SK;Pre\u0161ovsk\u00fd kraj;Pre\u0161ov"},{"stopID":1030000211,"stopName":"\u0160k\u00e1ra","stopRawName":"Pre\u0161ov, \u0160k\u00e1ra","stopCity":"Pre\u0161ov","latitude":null,"longitude":null,"iconName":"stop_urban","forUrbanPublicTransport":true,"forBusTransport":false,"forRail":false,"POIData":false,"platforms":[{"platformNumber":1,"latitude":48.9813,"longitude":21.2567,"tooltip":"\u0160k\u00e1ra"},{"platformNumber":2,"latitude":48.9813,"longitude":21.2567,"tooltip":"\u0160k\u00e1ra"}],"ezLines":["1","11","28","37","38","39","4","45","46","8"],"ezStopTypeName":"Navigation.StopType.Urban","passingLines":{"1":[{"lineType":"bus","lines":["1","11","28","37","38","39","4","45","46","8"]}],"2":[{"lineType":"bus","lines":["1","11","28","38","4","45","46","8"]}]},"subRegion":"SK;Pre\u0161ovsk\u00fd kraj;Pre\u0161ov"},{"stopID":1467,"stopName":"Pre\u0161ovsk\u00e1 univerzita","stopRawName":"Pre\u0161ov, Pre\u0161ovsk\u00e1 univerzita","stopCity":"Pre\u0161ov","latitude":null,"longitude":null,"iconName":"stop","forUrbanPublicTransport":false,"forBusTransport":true,"forRail":false,"POIData":false,"platforms":[{"platformNumber":1,"latitude":48.98985,"longitude":21.23569,"tooltip":"Pre\u0161ov, Pre\u0161ovsk\u00e1 univerzita"},{"platformNumber":2,"latitude":48.98985,"longitude":21.23569,"tooltip":"Pre\u0161ov, Pre\u0161ovsk\u00e1 univerzita"}],"ezLines":["704410","707416","707417","707418","707419","707421","707424","708459","810416"],"ezStopTypeName":"Navigation.StopType.Bus","passingLines":[],"subRegion":"SK;Pre\u0161ovsk\u00fd kraj;Pre\u0161ov"},{"stopID":1030000032,"stopName":"Martina Benku","stopRawName":"Pre\u0161ov, Martina Benku","stopCity":"Pre\u0161ov","latitude":null,"longitude":null,"iconName":"stop_urban","forUrbanPublicTransport":true,"forBusTransport":false,"forRail":false,"POIData":false,"platforms":[{"platformNumber":1,"latitude":48.9872,"longitude":21.2647,"tooltip":"Martina Benku"},{"platformNumber":2,"latitude":48.9872,"longitude":21.2647,"tooltip":"Martina Benku"}],"ezLines":["10","19","33","34","35","37","38","4","8","N1","N2"],"ezStopTypeName":"Navigation.StopType.Urban","passingLines":{"1":[{"lineType":"bus","lines":["10","19","33","34","35","37","38","4","8","N1","N2"]}],"2":[{"lineType":"bus","lines":["10","19","33","34","37","38","4","8","N1","N2"]}]},"subRegion":"SK;Pre\u0161ovsk\u00fd kraj;Pre\u0161ov"},{"stopID":1030000047,"stopName":"Vysoko\u0161kol. are\u00e1l","stopRawName":"Pre\u0161ov, Vysoko\u0161kol. are\u00e1l","stopCity":"Pre\u0161ov","latitude":null,"longitude":null,"iconName":"stop_urban","forUrbanPublicTransport":true,"forBusTransport":false,"forRail":false,"POIData":false,"platforms":[{"platformNumber":1,"latitude":48.9904,"longitude":21.2354,"tooltip":"Vysoko\u0161kol. are\u00e1l"},{"platformNumber":2,"latitude":48.9904,"longitude":21.2354,"tooltip":"Vysoko\u0161kol. are\u00e1l"}],"ezLines":["2","34","38","5","N1"],"ezStopTypeName":"Navigation.StopType.Urban","passingLines":{"1":[{"lineType":"bus","lines":["34","38","5","N1"]}],"2":[{"lineType":"bus","lines":["2","34","38","N1"]}]},"subRegion":"SK;Pre\u0161ovsk\u00fd kraj;Pre\u0161ov"},{"stopID":1030000088,"stopName":"Dilongova","stopRawName":"Pre\u0161ov, Dilongova","stopCity":"Pre\u0161ov","latitude":null,"longitude":null,"iconName":"stop_urban","forUrbanPublicTransport":true,"forBusTransport":false,"forRail":false,"POIData":false,"platforms":[{"platformNumber":1,"latitude":48.9996,"longitude":21.248,"tooltip":"Dilongova"},{"platformNumber":2,"latitude":48.9996,"longitude":21.248,"tooltip":"Dilongova"}],"ezLines":["10","12","15","19","29"],"ezStopTypeName":"Navigation.StopType.Urban","passingLines":{"1":[{"lineType":"bus","lines":["10"]}],"2":[{"lineType":"bus","lines":["12","15","19","29"]}]},"subRegion":"SK;Pre\u0161ovsk\u00fd kraj;Pre\u0161ov"},{"stopID":1030000201,"stopName":"Vy\u0161n\u00e9 l\u00faky","stopRawName":"Pre\u0161ov, Vy\u0161n\u00e9 l\u00faky","stopCity":"Pre\u0161ov","latitude":null,"longitude":null,"iconName":"stop_urban","forUrbanPublicTransport":true,"forBusTransport":false,"forRail":false,"POIData":false,"platforms":[{"platformNumber":1,"latitude":48.9931,"longitude":21.2648,"tooltip":"Vy\u0161n\u00e9 l\u00faky"},{"platformNumber":2,"latitude":48.9931,"longitude":21.2648,"tooltip":"Vy\u0161n\u00e9 l\u00faky"}],"ezLines":["22"],"ezStopTypeName":"Navigation.StopType.Urban","passingLines":{"1":[{"lineType":"bus","lines":["22"]}],"2":[{"lineType":"bus","lines":["22"]}]},"subRegion":"SK;Pre\u0161ovsk\u00fd kraj;Pre\u0161ov"},{"stopID":1030000139,"stopName":"Mestsk\u00e1 hala","stopRawName":"Pre\u0161ov, Mestsk\u00e1 hala","stopCity":"Pre\u0161ov","latitude":null,"longitude":null,"iconName":"stop_urban","forUrbanPublicTransport":true,"forBusTransport":false,"forRail":false,"POIData":false,"platforms":[{"platformNumber":1,"latitude":48.9844,"longitude":21.2366,"tooltip":"Mestsk\u00e1 hala"},{"platformNumber":2,"latitude":48.9844,"longitude":21.2366,"tooltip":"Mestsk\u00e1 hala"}],"ezLines":["27","43"],"ezStopTypeName":"Navigation.StopType.Urban","passingLines":{"1":[{"lineType":"bus","lines":["27","43"]}],"2":[{"lineType":"bus","lines":["27"]}]},"subRegion":"SK;Pre\u0161ovsk\u00fd kraj;Pre\u0161ov"},{"stopID":1030000033,"stopName":"Pavla Horova","stopRawName":"Pre\u0161ov, Pavla Horova","stopCity":"Pre\u0161ov","latitude":null,"longitude":null,"iconName":"stop_urban","forUrbanPublicTransport":true,"forBusTransport":false,"forRail":false,"POIData":false,"platforms":[{"platformNumber":1,"latitude":48.9838,"longitude":21.2639,"tooltip":"Pavla Horova"},{"platformNumber":2,"latitude":48.9838,"longitude":21.2639,"tooltip":"Pavla Horova"}],"ezLines":["10","19","33","34","35","37","38","4","8","N1","N2"],"ezStopTypeName":"Navigation.StopType.Urban","passingLines":{"1":[{"lineType":"bus","lines":["10","19","33","34","35","37","38","4","8","N1","N2"]}],"2":[{"lineType":"bus","lines":["10","19","33","34","37","38","4","8","N1","N2"]}]},"subRegion":"SK;Pre\u0161ovsk\u00fd kraj;Pre\u0161ov"},{"stopID":1030000052,"stopName":"L. Novomesk\u00e9ho","stopRawName":"Pre\u0161ov, L. Novomesk\u00e9ho","stopCity":"Pre\u0161ov","latitude":null,"longitude":null,"iconName":"stop_urban","forUrbanPublicTransport":true,"forBusTransport":false,"forRail":false,"POIData":false,"platforms":[{"platformNumber":1,"latitude":48.9902,"longitude":21.2669,"tooltip":"L. Novomesk\u00e9ho"},{"platformNumber":2,"latitude":48.9902,"longitude":21.2669,"tooltip":"L. Novomesk\u00e9ho"}],"ezLines":["12","19","22","34","36","4","44","N1","N2"],"ezStopTypeName":"Navigation.StopType.Urban","passingLines":{"1":[{"lineType":"bus","lines":["12","19","22","34","36","4","44","N1"]}],"2":[{"lineType":"bus","lines":["12","19","22","34","36","4","44","N1","N2"]}]},"subRegion":"SK;Pre\u0161ovsk\u00fd kraj;Pre\u0161ov"},{"stopID":1030000013,"stopName":"Nov\u00fd Solivar","stopRawName":"Pre\u0161ov, Nov\u00fd Solivar","stopCity":"Pre\u0161ov","latitude":null,"longitude":null,"iconName":"stop_urban","forUrbanPublicTransport":true,"forBusTransport":false,"forRail":false,"POIData":false,"platforms":[{"platformNumber":1,"latitude":48.9788,"longitude":21.251,"tooltip":"Nov\u00fd Solivar"},{"platformNumber":2,"latitude":48.9788,"longitude":21.251,"tooltip":"Nov\u00fd Solivar"}],"ezLines":["10","14","19","24","26","30","37","39","42","N1","N2"],"ezStopTypeName":"Navigation.StopType.Urban","passingLines":{"1":[{"lineType":"bus","lines":["10","14","19","24","26","42","N1","N2"]}],"2":[{"lineType":"bus","lines":["10","14","19","24","26","30","37","39","N1","N2"]}]},"subRegion":"SK;Pre\u0161ovsk\u00fd kraj;Pre\u0161ov"},{"stopID":16764,"stopName":"Nov\u00fd Solivar","stopRawName":"Pre\u0161ov, Nov\u00fd Solivar","stopCity":"Pre\u0161ov","latitude":null,"longitude":null,"iconName":"stop","forUrbanPublicTransport":false,"forBusTransport":true,"forRail":false,"POIData":false,"platforms":[{"platformNumber":1,"latitude":48.978396,"longitude":21.251266,"tooltip":"Pre\u0161ov, Nov\u00fd Solivar"},{"platformNumber":2,"latitude":48.978481,"longitude":21.25132,"tooltip":"Pre\u0161ov, Nov\u00fd Solivar"}],"ezLines":["707403","707405","707407","707408","707410","802434"],"ezStopTypeName":"Navigation.StopType.Bus","passingLines":[],"subRegion":"SK;Pre\u0161ovsk\u00fd kraj;Pre\u0161ov"},{"stopID":1030000067,"stopName":"Gym. sv. Moniky","stopRawName":"Pre\u0161ov, Gym. sv. Moniky","stopCity":"Pre\u0161ov","latitude":null,"longitude":null,"iconName":"stop_urban","forUrbanPublicTransport":true,"forBusTransport":false,"forRail":false,"POIData":false,"platforms":[{"platformNumber":1,"latitude":48.9953,"longitude":21.2351,"tooltip":"Gym. sv. Moniky"},{"platformNumber":2,"latitude":48.9953,"longitude":21.2351,"tooltip":"Gym. sv. Moniky"}],"ezLines":["12"],"ezStopTypeName":"Navigation.StopType.Urban","passingLines":{"1":[{"lineType":"bus","lines":["12"]}],"2":[{"lineType":"bus","lines":["12"]}]},"subRegion":"SK;Pre\u0161ovsk\u00fd kraj;Pre\u0161ov"},{"stopID":950001089,"stopName":"\u017eel.st.","stopRawName":"Pre\u0161ov mesto, \u017eel.st.","stopCity":"Pre\u0161ov mesto","latitude":null,"longitude":null,"iconName":"stop_train","forUrbanPublicTransport":false,"forBusTransport":false,"forRail":true,"POIData":false,"platforms":[{"platformNumber":0,"latitude":48.994214,"longitude":21.234013,"tooltip":"Pre\u0161ov mesto, \u017eel.st."}],"ezLines":["Os 8500","Os 8501","Os 8502","Os 8503","Os 8504","Os 8505","Os 8506","Os 8507","Os 8510","Os 8511","Os 8514","Os 8515","Os 8516","Os 8517","Os 8518","Os 8519","Os 8520","Os 8521","Os 8522","Os 8523","Os 8524","Os 8525","Os 8526","Os 8527","Os 8528","Os 8529","Os 8530","Os 8533","Os 8536","Os 8553","Os 8586"],"ezStopTypeName":"Navigation.StopType.Train","passingLines":[],"subRegion":"SK;Pre\u0161ovsk\u00fd kraj;Pre\u0161ov"},{"stopID":1030000492,"stopName":"Spinea - Z\u00e1tureck\u00e1","stopRawName":"Pre\u0161ov, Spinea - Z\u00e1tureck\u00e1","stopCity":"Pre\u0161ov","latitude":null,"longitude":null,"iconName":"stop_urban","forUrbanPublicTransport":true,"forBusTransport":false,"forRail":false,"POIData":false,"platforms":[{"platformNumber":1,"latitude":48.980796,"longitude":21.261692,"tooltip":"Spinea - Z\u00e1tureck\u00e1"},{"platformNumber":2,"latitude":48.980796,"longitude":21.261692,"tooltip":"Spinea - Z\u00e1tureck\u00e1"}],"ezLines":["26"],"ezStopTypeName":"Navigation.StopType.Urban","passingLines":{"1":[{"lineType":"bus","lines":["26"]}],"2":[{"lineType":"bus","lines":["26"]}]},"subRegion":"SK;Pre\u0161ovsk\u00fd kraj;Pre\u0161ov"},{"stopID":1030000037,"stopName":"Pek\u00e1rne","stopRawName":"Pre\u0161ov, Pek\u00e1rne","stopCity":"Pre\u0161ov","latitude":null,"longitude":null,"iconName":"stop_urban","forUrbanPublicTransport":true,"forBusTransport":false,"forRail":false,"POIData":false,"platforms":[{"platformNumber":1,"latitude":48.9789,"longitude":21.2441,"tooltip":"Pek\u00e1rne"},{"platformNumber":2,"latitude":48.9789,"longitude":21.2441,"tooltip":"Pek\u00e1rne"}],"ezLines":["2","30","34","42","5","7"],"ezStopTypeName":"Navigation.StopType.Urban","passingLines":{"1":[{"lineType":"bus","lines":["2","30","34","7"]}],"2":[{"lineType":"bus","lines":["30","34","42","5","7"]}]},"subRegion":"SK;Pre\u0161ovsk\u00fd kraj;Pre\u0161ov"},{"stopID":1030000212,"stopName":"Flori\u00e1nova","stopRawName":"Pre\u0161ov, Flori\u00e1nova","stopCity":"Pre\u0161ov","latitude":null,"longitude":null,"iconName":"stop_urban","forUrbanPublicTransport":true,"forBusTransport":false,"forRail":false,"POIData":false,"platforms":[{"platformNumber":2,"latitude":48.9972,"longitude":21.2361,"tooltip":"Flori\u00e1nova"}],"ezLines":["32"],"ezStopTypeName":"Navigation.StopType.Urban","passingLines":{"2":[{"lineType":"bus","lines":["32"]}]},"subRegion":"SK;Pre\u0161ovsk\u00fd kraj;Pre\u0161ov"},{"stopID":1030000048,"stopName":"Duchnovi\u010dovo n.","stopRawName":"Pre\u0161ov, Duchnovi\u010dovo n.","stopCity":"Pre\u0161ov","latitude":null,"longitude":null,"iconName":"stop_urban","forUrbanPublicTransport":true,"forBusTransport":false,"forRail":false,"POIData":false,"platforms":[{"platformNumber":1,"latitude":48.9938,"longitude":21.2325,"tooltip":"Duchnovi\u010dovo n."},{"platformNumber":2,"latitude":48.9938,"longitude":21.2325,"tooltip":"Duchnovi\u010dovo n."}],"ezLines":["2","34","38","5","N1"],"ezStopTypeName":"Navigation.StopType.Urban","passingLines":{"1":[{"lineType":"bus","lines":["34","38","5","N1"]}],"2":[{"lineType":"bus","lines":["2","34","38","N1"]}]},"subRegion":"SK;Pre\u0161ovsk\u00fd kraj;Pre\u0161ov"},{"stopID":1030000140,"stopName":"Pod K. ba\u0148ou","stopRawName":"Pre\u0161ov, Pod K. ba\u0148ou","stopCity":"Pre\u0161ov","latitude":null,"longitude":null,"iconName":"stop_urban","forUrbanPublicTransport":true,"forBusTransport":false,"forRail":false,"POIData":false,"platforms":[{"platformNumber":1,"latitude":48.9835,"longitude":21.2339,"tooltip":"Pod K. ba\u0148ou"},{"platformNumber":2,"latitude":48.9835,"longitude":21.2339,"tooltip":"Pod K. ba\u0148ou"}],"ezLines":["27","43"],"ezStopTypeName":"Navigation.StopType.Urban","passingLines":{"1":[{"lineType":"bus","lines":["27","43"]}],"2":[{"lineType":"bus","lines":["27"]}]},"subRegion":"SK;Pre\u0161ovsk\u00fd kraj;Pre\u0161ov"},{"stopID":1030000031,"stopName":"Jurkovi\u010dova","stopRawName":"Pre\u0161ov, Jurkovi\u010dova","stopCity":"Pre\u0161ov","latitude":null,"longitude":null,"iconName":"stop_urban","forUrbanPublicTransport":true,"forBusTransport":false,"forRail":false,"POIData":false,"platforms":[{"platformNumber":1,"latitude":48.9944,"longitude":21.2683,"tooltip":"Jurkovi\u010dova"},{"platformNumber":2,"latitude":48.9944,"longitude":21.2683,"tooltip":"Jurkovi\u010dova"}],"ezLines":["10","12","13","32","32A","33","34","37","38","8","N2"],"ezStopTypeName":"Navigation.StopType.Urban","passingLines":{"1":[{"lineType":"bus","lines":["10","12","13","32","32A","33","34","37","38","8","N2"]}],"2":[{"lineType":"bus","lines":["10","12","13","32","33","34","37","38","8","N2"]}]},"subRegion":"SK;Pre\u0161ovsk\u00fd kraj;Pre\u0161ov"},{"stopID":1030000223,"stopName":"Vod\u00e1rensk\u00e1","stopRawName":"Pre\u0161ov, Vod\u00e1rensk\u00e1","stopCity":"Pre\u0161ov","latitude":null,"longitude":null,"iconName":"stop_urban","forUrbanPublicTransport":true,"forBusTransport":false,"forRail":false,"POIData":false,"platforms":[{"platformNumber":1,"latitude":49.0024,"longitude":21.2494,"tooltip":"Vod\u00e1rensk\u00e1"},{"platformNumber":2,"latitude":49.0024,"longitude":21.2494,"tooltip":"Vod\u00e1rensk\u00e1"}],"ezLines":["27"],"ezStopTypeName":"Navigation.StopType.Urban","passingLines":{"1":[{"lineType":"bus","lines":["27"]}],"2":[{"lineType":"bus","lines":["27"]}]},"subRegion":"SK;Pre\u0161ovsk\u00fd kraj;Pre\u0161ov"},{"stopID":1030000008,"stopName":"Trojica","stopRawName":"Pre\u0161ov, Trojica","stopCity":"Pre\u0161ov","latitude":null,"longitude":null,"iconName":"stop_urban","forUrbanPublicTransport":true,"forBusTransport":false,"forRail":false,"POIData":false,"platforms":[{"platformNumber":1,"latitude":49.0002,"longitude":21.2393,"tooltip":"Trojica"},{"platformNumber":2,"latitude":49.0002,"longitude":21.2393,"tooltip":"Trojica"}],"ezLines":["1","11","12","14","15","18","2","21","22","24","27","28","29","32","36","39","4","41","45","5","7","8","N2"],"ezStopTypeName":"Navigation.StopType.Urban","passingLines":{"1":[{"lineType":"bus","lines":["1","11","12","14","15","18","2","21","22","24","27","28","32","36","39","4","41","45","5","7","8","N2"]}],"2":[{"lineType":"bus","lines":["1","11","12","14","15","18","2","21","22","24","27","28","29","32","36","39","4","41","45","5","7","8","N2"]}]},"subRegion":"SK;Pre\u0161ovsk\u00fd kraj;Pre\u0161ov"},{"stopID":1030000224,"stopName":"Hviezdna","stopRawName":"Pre\u0161ov, Hviezdna","stopCity":"Pre\u0161ov","latitude":null,"longitude":null,"iconName":"stop_urban","forUrbanPublicTransport":true,"forBusTransport":false,"forRail":false,"POIData":false,"platforms":[{"platformNumber":1,"latitude":49.0025,"longitude":21.2523,"tooltip":"Hviezdna"},{"platformNumber":2,"latitude":49.0025,"longitude":21.2523,"tooltip":"Hviezdna"}],"ezLines":["27"],"ezStopTypeName":"Navigation.StopType.Urban","passingLines":{"1":[{"lineType":"bus","lines":["27"]}],"2":[{"lineType":"bus","lines":["27"]}]},"subRegion":"SK;Pre\u0161ovsk\u00fd kraj;Pre\u0161ov"},{"stopID":1030000095,"stopName":"Vajansk\u00e9ho","stopRawName":"Pre\u0161ov, Vajansk\u00e9ho","stopCity":"Pre\u0161ov","latitude":null,"longitude":null,"iconName":"stop_urban","forUrbanPublicTransport":true,"forBusTransport":false,"forRail":false,"POIData":false,"platforms":[{"platformNumber":2,"latitude":49.002,"longitude":21.2429,"tooltip":"Vajansk\u00e9ho"}],"ezLines":["12","27"],"ezStopTypeName":"Navigation.StopType.Urban","passingLines":{"2":[{"lineType":"bus","lines":["12","27"]}]},"subRegion":"SK;Pre\u0161ovsk\u00fd kraj;Pre\u0161ov"},{"stopID":23224,"stopName":"Jilemnick\u00e9ho - gar\u00e1\u017e SAD","stopRawName":"Pre\u0161ov, Jilemnick\u00e9ho - gar\u00e1\u017e SAD","stopCity":"Pre\u0161ov","latitude":null,"longitude":null,"iconName":"stop","forUrbanPublicTransport":false,"forBusTransport":true,"forRail":false,"POIData":false,"platforms":[{"platformNumber":1,"latitude":48.976616,"longitude":21.246758,"tooltip":"Pre\u0161ov, Jilemnick\u00e9ho - gar\u00e1\u017e SAD"},{"platformNumber":2,"latitude":48.976616,"longitude":21.246758,"tooltip":"Pre\u0161ov, Jilemnick\u00e9ho - gar\u00e1\u017e SAD"}],"ezLines":["707407","707416","707421","707448"],"ezStopTypeName":"Navigation.StopType.Bus","passingLines":[],"subRegion":"SK;Pre\u0161ovsk\u00fd kraj;Pre\u0161ov"},{"stopID":1030000066,"stopName":"Ostrov\u010dek","stopRawName":"Pre\u0161ov, Ostrov\u010dek","stopCity":"Pre\u0161ov","latitude":null,"longitude":null,"iconName":"stop_urban","forUrbanPublicTransport":true,"forBusTransport":false,"forRail":false,"POIData":false,"platforms":[{"platformNumber":1,"latitude":48.9934,"longitude":21.2305,"tooltip":"Ostrov\u010dek"},{"platformNumber":2,"latitude":48.9934,"longitude":21.2305,"tooltip":"Ostrov\u010dek"}],"ezLines":["15"],"ezStopTypeName":"Navigation.StopType.Urban","passingLines":{"1":[{"lineType":"bus","lines":["15"]}],"2":[{"lineType":"bus","lines":["15"]}]},"subRegion":"SK;Pre\u0161ovsk\u00fd kraj;Pre\u0161ov"},{"stopID":1030000034,"stopName":"Lesn\u00edcka","stopRawName":"Pre\u0161ov, Lesn\u00edcka","stopCity":"Pre\u0161ov","latitude":null,"longitude":null,"iconName":"stop_urban","forUrbanPublicTransport":true,"forBusTransport":false,"forRail":false,"POIData":false,"platforms":[{"platformNumber":1,"latitude":48.9794,"longitude":21.264,"tooltip":"Lesn\u00edcka"},{"platformNumber":2,"latitude":48.9794,"longitude":21.264,"tooltip":"Lesn\u00edcka"}],"ezLines":["10","19","33","34","35","37","38","4","8","N1","N2"],"ezStopTypeName":"Navigation.StopType.Urban","passingLines":{"1":[{"lineType":"bus","lines":["10","19","33","34","35","37","38","4","8","N1","N2"]}],"2":[{"lineType":"bus","lines":["10","19","33","34","37","38","4","8","N1","N2"]}]},"subRegion":"SK;Pre\u0161ovsk\u00fd kraj;Pre\u0161ov"},{"stopID":1030000171,"stopName":"Pod Kalv\u00e1riou","stopRawName":"Pre\u0161ov, Pod Kalv\u00e1riou","stopCity":"Pre\u0161ov","latitude":null,"longitude":null,"iconName":"stop_urban","forUrbanPublicTransport":true,"forBusTransport":false,"forRail":false,"POIData":false,"platforms":[{"platformNumber":1,"latitude":48.991,"longitude":21.2296,"tooltip":"Pod Kalv\u00e1riou"}],"ezLines":["15","43"],"ezStopTypeName":"Navigation.StopType.Urban","passingLines":{"1":[{"lineType":"bus","lines":["15","43"]}]},"subRegion":"SK;Pre\u0161ovsk\u00fd kraj;Pre\u0161ov"},{"stopID":1030000051,"stopName":"Vansovej","stopRawName":"Pre\u0161ov, Vansovej","stopCity":"Pre\u0161ov","latitude":null,"longitude":null,"iconName":"stop_urban","forUrbanPublicTransport":true,"forBusTransport":false,"forRail":false,"POIData":false,"platforms":[{"platformNumber":1,"latitude":48.992,"longitude":21.2711,"tooltip":"Vansovej"},{"platformNumber":2,"latitude":48.992,"longitude":21.2711,"tooltip":"Vansovej"}],"ezLines":["12","22","34","36","4","N1","N2"],"ezStopTypeName":"Navigation.StopType.Urban","passingLines":{"1":[{"lineType":"bus","lines":["12","22","34","36","4","N1"]}],"2":[{"lineType":"bus","lines":["12","22","34","36","4","N1","N2"]}]},"subRegion":"SK;Pre\u0161ovsk\u00fd kraj;Pre\u0161ov"},{"stopID":1030000036,"stopName":"Budovate\u013esk\u00e1","stopRawName":"Pre\u0161ov, Budovate\u013esk\u00e1","stopCity":"Pre\u0161ov","latitude":null,"longitude":null,"iconName":"stop_urban","forUrbanPublicTransport":true,"forBusTransport":false,"forRail":false,"POIData":false,"platforms":[{"platformNumber":1,"latitude":48.9766,"longitude":21.2444,"tooltip":"Budovate\u013esk\u00e1"},{"platformNumber":2,"latitude":48.9766,"longitude":21.2444,"tooltip":"Budovate\u013esk\u00e1"}],"ezLines":["2","30","34","42","5","7"],"ezStopTypeName":"Navigation.StopType.Urban","passingLines":{"1":[{"lineType":"bus","lines":["2","30","7"]}],"2":[{"lineType":"bus","lines":["34","42","5","7"]}]},"subRegion":"SK;Pre\u0161ovsk\u00fd kraj;Pre\u0161ov"},{"stopID":1030000186,"stopName":"Jilemnick\u00e9ho","stopRawName":"Pre\u0161ov, Jilemnick\u00e9ho","stopCity":"Pre\u0161ov","latitude":null,"longitude":null,"iconName":"stop_urban","forUrbanPublicTransport":true,"forBusTransport":false,"forRail":false,"POIData":false,"platforms":[{"platformNumber":1,"latitude":48.9763,"longitude":21.2455,"tooltip":"Jilemnick\u00e9ho"},{"platformNumber":2,"latitude":48.9763,"longitude":21.2455,"tooltip":"Jilemnick\u00e9ho"}],"ezLines":["30","34","42"],"ezStopTypeName":"Navigation.StopType.Urban","passingLines":{"1":[{"lineType":"bus","lines":["34","42"]}],"2":[{"lineType":"bus","lines":["30"]}]},"subRegion":"SK;Pre\u0161ovsk\u00fd kraj;Pre\u0161ov"},{"stopID":1030000172,"stopName":"Zimn\u00fd \u0161tadi\u00f3n","stopRawName":"Pre\u0161ov, Zimn\u00fd \u0161tadi\u00f3n","stopCity":"Pre\u0161ov","latitude":null,"longitude":null,"iconName":"stop_urban","forUrbanPublicTransport":true,"forBusTransport":false,"forRail":false,"POIData":false,"platforms":[{"platformNumber":1,"latitude":48.9878,"longitude":21.2292,"tooltip":"Zimn\u00fd \u0161tadi\u00f3n"},{"platformNumber":2,"latitude":48.9878,"longitude":21.2292,"tooltip":"Zimn\u00fd \u0161tadi\u00f3n"}],"ezLines":["15","43"],"ezStopTypeName":"Navigation.StopType.Urban","passingLines":{"1":[{"lineType":"bus","lines":["15","43"]}],"2":[{"lineType":"bus","lines":["15"]}]},"subRegion":"SK;Pre\u0161ovsk\u00fd kraj;Pre\u0161ov"},{"stopID":1492,"stopName":"Duklianska","stopRawName":"Pre\u0161ov, Duklianska","stopCity":"Pre\u0161ov","latitude":null,"longitude":null,"iconName":"stop","forUrbanPublicTransport":false,"forBusTransport":true,"forRail":false,"POIData":false,"platforms":[{"platformNumber":1,"latitude":49.00325,"longitude":21.243441,"tooltip":"Pre\u0161ov, Duklianska"},{"platformNumber":2,"latitude":49.00325,"longitude":21.243441,"tooltip":"Pre\u0161ov, Duklianska"}],"ezLines":["704403","707430","707431","707432","707435","707436","707437","708403","708411","708465","710442","802435"],"ezStopTypeName":"Navigation.StopType.Bus","passingLines":[],"subRegion":"SK;Pre\u0161ovsk\u00fd kraj;Pre\u0161ov"},{"stopID":1030000025,"stopName":"Duklianska","stopRawName":"Pre\u0161ov, Duklianska","stopCity":"Pre\u0161ov","latitude":null,"longitude":null,"iconName":"stop_urban","forUrbanPublicTransport":true,"forBusTransport":false,"forRail":false,"POIData":false,"platforms":[{"platformNumber":1,"latitude":49.0028,"longitude":21.2416,"tooltip":"Duklianska"},{"platformNumber":2,"latitude":49.0028,"longitude":21.2416,"tooltip":"Duklianska"}],"ezLines":["1","12","17","21","27","28","41","43","7"],"ezStopTypeName":"Navigation.StopType.Urban","passingLines":{"1":[{"lineType":"bus","lines":["1","12","17","21","27","28","41","43","7"]}],"2":[{"lineType":"bus","lines":["1","17","27","28","41","7"]}]},"subRegion":"SK;Pre\u0161ovsk\u00fd kraj;Pre\u0161ov"},{"stopID":1030000065,"stopName":"Str. lesn\u00edc. \u0161kola","stopRawName":"Pre\u0161ov, Str. lesn\u00edc. \u0161kola","stopCity":"Pre\u0161ov","latitude":null,"longitude":null,"iconName":"stop_urban","forUrbanPublicTransport":true,"forBusTransport":false,"forRail":false,"POIData":false,"platforms":[{"platformNumber":1,"latitude":48.9928,"longitude":21.229,"tooltip":"Str. lesn\u00edc. \u0161kola"},{"platformNumber":2,"latitude":48.9928,"longitude":21.229,"tooltip":"Str. lesn\u00edc. \u0161kola"}],"ezLines":["12","15","24","43"],"ezStopTypeName":"Navigation.StopType.Urban","passingLines":{"1":[{"lineType":"bus","lines":["12","15","43"]}],"2":[{"lineType":"bus","lines":["12","15","24"]}]},"subRegion":"SK;Pre\u0161ovsk\u00fd kraj;Pre\u0161ov"},{"stopID":15874,"stopName":"\u0160af\u00e1rikova cintor\u00edn","stopRawName":"Pre\u0161ov, \u0160af\u00e1rikova cintor\u00edn","stopCity":"Pre\u0161ov","latitude":null,"longitude":null,"iconName":"stop","forUrbanPublicTransport":false,"forBusTransport":true,"forRail":false,"POIData":false,"platforms":[{"platformNumber":1,"latitude":49.004088,"longitude":21.246714,"tooltip":"Pre\u0161ov, \u0160af\u00e1rikova cintor\u00edn"},{"platformNumber":2,"latitude":49.00433,"longitude":21.24633,"tooltip":"Pre\u0161ov, \u0160af\u00e1rikova cintor\u00edn"}],"ezLines":["701412","701501","702412","707418","707430","707431","707432","707435","707436","707437","707438","707442","707444","707445","707446","707447","707448","707449","707452","708403","708411","708465","710442","711406","711406","712413","712414","712459","713407","713423","802433","807424","811431"],"ezStopTypeName":"Navigation.StopType.Bus","passingLines":[],"subRegion":"SK;Pre\u0161ovsk\u00fd kraj;Pre\u0161ov"},{"stopID":1030000040,"stopName":"Poliklinika","stopRawName":"Pre\u0161ov, Poliklinika","stopCity":"Pre\u0161ov","latitude":null,"longitude":null,"iconName":"stop_urban","forUrbanPublicTransport":true,"forBusTransport":false,"forRail":false,"POIData":false,"platforms":[{"platformNumber":1,"latitude":49.0009,"longitude":21.2361,"tooltip":"Poliklinika"},{"platformNumber":2,"latitude":49.0009,"longitude":21.2361,"tooltip":"Poliklinika"}],"ezLines":["11","15","17","18","2","21","24","29","32","4","5","8","N2"],"ezStopTypeName":"Navigation.StopType.Urban","passingLines":{"1":[{"lineType":"bus","lines":["11","15","17","18","2","21","24","4","8"]}],"2":[{"lineType":"bus","lines":["11","15","17","18","21","24","29","32","4","5","8","N2"]}]},"subRegion":"SK;Pre\u0161ovsk\u00fd kraj;Pre\u0161ov"},{"stopID":1030000070,"stopName":"\u0160af\u00e1rikova","stopRawName":"Pre\u0161ov, \u0160af\u00e1rikova","stopCity":"Pre\u0161ov","latitude":null,"longitude":null,"iconName":"stop_urban","forUrbanPublicTransport":true,"forBusTransport":false,"forRail":false,"POIData":false,"platforms":[{"platformNumber":1,"latitude":49.0043,"longitude":21.2465,"tooltip":"\u0160af\u00e1rikova"}],"ezLines":["12","21","27","43"],"ezStopTypeName":"Navigation.StopType.Urban","passingLines":{"1":[{"lineType":"bus","lines":["12","21","27","43"]}]},"subRegion":"SK;Pre\u0161ovsk\u00fd kraj;Pre\u0161ov"},{"stopID":1030000049,"stopName":"N\u00e1m. ml\u00e1de\u017ee","stopRawName":"Pre\u0161ov, N\u00e1m. ml\u00e1de\u017ee","stopCity":"Pre\u0161ov","latitude":null,"longitude":null,"iconName":"stop_urban","forUrbanPublicTransport":true,"forBusTransport":false,"forRail":false,"POIData":false,"platforms":[{"platformNumber":1,"latitude":48.9955,"longitude":21.2295,"tooltip":"N\u00e1m. ml\u00e1de\u017ee"},{"platformNumber":2,"latitude":48.9955,"longitude":21.2295,"tooltip":"N\u00e1m. ml\u00e1de\u017ee"}],"ezLines":["15","2","34","38","N1"],"ezStopTypeName":"Navigation.StopType.Urban","passingLines":{"1":[{"lineType":"bus","lines":["15","N1"]}],"2":[{"lineType":"bus","lines":["2","34","38"]}]},"subRegion":"SK;Pre\u0161ovsk\u00fd kraj;Pre\u0161ov"},{"stopID":1030000030,"stopName":"Karpatsk\u00e1","stopRawName":"Pre\u0161ov, Karpatsk\u00e1","stopCity":"Pre\u0161ov","latitude":null,"longitude":null,"iconName":"stop_urban","forUrbanPublicTransport":true,"forBusTransport":false,"forRail":false,"POIData":false,"platforms":[{"platformNumber":1,"latitude":48.9973,"longitude":21.27,"tooltip":"Karpatsk\u00e1"},{"platformNumber":2,"latitude":48.9973,"longitude":21.27,"tooltip":"Karpatsk\u00e1"}],"ezLines":["10","12","13","32","32A","33","34","37","38","8","N2"],"ezStopTypeName":"Navigation.StopType.Urban","passingLines":{"1":[{"lineType":"bus","lines":["10","12","13","32","32A","33","34","37","38","8","N2"]}],"2":[{"lineType":"bus","lines":["10","12","13","32","33","34","37","38","8","N2"]}]},"subRegion":"SK;Pre\u0161ovsk\u00fd kraj;Pre\u0161ov"},{"stopID":1030000097,"stopName":"Kysuck\u00e1","stopRawName":"Pre\u0161ov, Kysuck\u00e1","stopCity":"Pre\u0161ov","latitude":null,"longitude":null,"iconName":"stop_urban","forUrbanPublicTransport":true,"forBusTransport":false,"forRail":false,"POIData":false,"platforms":[{"platformNumber":1,"latitude":48.9846,"longitude":21.273,"tooltip":"Kysuck\u00e1"},{"platformNumber":2,"latitude":48.9846,"longitude":21.273,"tooltip":"Kysuck\u00e1"}],"ezLines":["19","44"],"ezStopTypeName":"Navigation.StopType.Urban","passingLines":{"1":[{"lineType":"bus","lines":["19","44"]}],"2":[{"lineType":"bus","lines":["19","44"]}]},"subRegion":"SK;Pre\u0161ovsk\u00fd kraj;Pre\u0161ov"},{"stopID":1030000202,"stopName":"Sl\u00e1vi\u010dia","stopRawName":"Pre\u0161ov, Sl\u00e1vi\u010dia","stopCity":"Pre\u0161ov","latitude":null,"longitude":null,"iconName":"stop_urban","forUrbanPublicTransport":true,"forBusTransport":false,"forRail":false,"POIData":false,"platforms":[{"platformNumber":1,"latitude":48.9863,"longitude":21.227,"tooltip":"Sl\u00e1vi\u010dia"},{"platformNumber":2,"latitude":48.9863,"longitude":21.227,"tooltip":"Sl\u00e1vi\u010dia"}],"ezLines":["27"],"ezStopTypeName":"Navigation.StopType.Urban","passingLines":{"1":[{"lineType":"bus","lines":["27"]}],"2":[{"lineType":"bus","lines":["27"]}]},"subRegion":"SK;Pre\u0161ovsk\u00fd kraj;Pre\u0161ov"},{"stopID":1030000014,"stopName":"Ko\u0161ick\u00e1","stopRawName":"Pre\u0161ov, Ko\u0161ick\u00e1","stopCity":"Pre\u0161ov","latitude":null,"longitude":null,"iconName":"stop_urban","forUrbanPublicTransport":true,"forBusTransport":false,"forRail":false,"POIData":false,"platforms":[{"platformNumber":1,"latitude":48.9738,"longitude":21.2523,"tooltip":"Ko\u0161ick\u00e1"},{"platformNumber":2,"latitude":48.9738,"longitude":21.2523,"tooltip":"Ko\u0161ick\u00e1"}],"ezLines":["10","14","19","24","26","34","37","39","N1","N2"],"ezStopTypeName":"Navigation.StopType.Urban","passingLines":{"1":[{"lineType":"bus","lines":["10","14","19","24","26","34","N1","N2"]}],"2":[{"lineType":"bus","lines":["10","14","19","24","26","37","39","N1","N2"]}]},"subRegion":"SK;Pre\u0161ovsk\u00fd kraj;Pre\u0161ov"},{"stopID":16703,"stopName":"Solivarsk\u00e1","stopRawName":"Pre\u0161ov, Solivarsk\u00e1","stopCity":"Pre\u0161ov","latitude":null,"longitude":null,"iconName":"stop","forUrbanPublicTransport":false,"forBusTransport":true,"forRail":false,"POIData":false,"platforms":[{"platformNumber":1,"latitude":48.977229,"longitude":21.266144,"tooltip":"Pre\u0161ov, Solivarsk\u00e1"},{"platformNumber":2,"latitude":48.977437,"longitude":21.264925,"tooltip":"Pre\u0161ov, Solivarsk\u00e1"}],"ezLines":["707401","707403"],"ezStopTypeName":"Navigation.StopType.Bus","passingLines":[],"subRegion":"SK;Pre\u0161ovsk\u00fd kraj;Pre\u0161ov"},{"stopID":1030000026,"stopName":"Solivarsk\u00e1","stopRawName":"Pre\u0161ov, Solivarsk\u00e1","stopCity":"Pre\u0161ov","latitude":null,"longitude":null,"iconName":"stop_urban","forUrbanPublicTransport":true,"forBusTransport":false,"forRail":false,"POIData":false,"platforms":[{"platformNumber":1,"latitude":48.9774,"longitude":21.2665,"tooltip":"Solivarsk\u00e1"},{"platformNumber":2,"latitude":48.9774,"longitude":21.2665,"tooltip":"Solivarsk\u00e1"}],"ezLines":["1","46","N1"],"ezStopTypeName":"Navigation.StopType.Urban","passingLines":{"1":[{"lineType":"bus","lines":["1","46"]}],"2":[{"lineType":"bus","lines":["1","46","N1"]}]},"subRegion":"SK;Pre\u0161ovsk\u00fd kraj;Pre\u0161ov"},{"stopID":1030000141,"stopName":"Hor\u00e1rska","stopRawName":"Pre\u0161ov, Hor\u00e1rska","stopCity":"Pre\u0161ov","latitude":null,"longitude":null,"iconName":"stop_urban","forUrbanPublicTransport":true,"forBusTransport":false,"forRail":false,"POIData":false,"platforms":[{"platformNumber":1,"latitude":48.9861,"longitude":21.2262,"tooltip":"Hor\u00e1rska"},{"platformNumber":2,"latitude":48.9861,"longitude":21.2262,"tooltip":"Hor\u00e1rska"}],"ezLines":["15"],"ezStopTypeName":"Navigation.StopType.Urban","passingLines":{"1":[{"lineType":"bus","lines":["15"]}],"2":[{"lineType":"bus","lines":["15"]}]},"subRegion":"SK;Pre\u0161ovsk\u00fd kraj;Pre\u0161ov"},{"stopID":1030000041,"stopName":"Obr. mieru","stopRawName":"Pre\u0161ov, Obr. mieru","stopCity":"Pre\u0161ov","latitude":null,"longitude":null,"iconName":"stop_urban","forUrbanPublicTransport":true,"forBusTransport":false,"forRail":false,"POIData":false,"platforms":[{"platformNumber":1,"latitude":48.9981,"longitude":21.2281,"tooltip":"Obr. mieru"},{"platformNumber":2,"latitude":48.9981,"longitude":21.2281,"tooltip":"Obr. mieru"}],"ezLines":["15","2","24","34","38","5","N1"],"ezStopTypeName":"Navigation.StopType.Urban","passingLines":{"1":[{"lineType":"bus","lines":["15","2","24","34","38","5","N1"]}],"2":[{"lineType":"bus","lines":["15","2","24","34","38","5","N1"]}]},"subRegion":"SK;Pre\u0161ovsk\u00fd kraj;Pre\u0161ov"},{"stopID":1030000050,"stopName":"Pod \u0160algov\u00edkom","stopRawName":"Pre\u0161ov, Pod \u0160algov\u00edkom","stopCity":"Pre\u0161ov","latitude":null,"longitude":null,"iconName":"stop_urban","forUrbanPublicTransport":true,"forBusTransport":false,"forRail":false,"POIData":false,"platforms":[{"platformNumber":1,"latitude":48.9936,"longitude":21.2756,"tooltip":"Pod \u0160algov\u00edkom"},{"platformNumber":2,"latitude":48.9936,"longitude":21.2756,"tooltip":"Pod \u0160algov\u00edkom"}],"ezLines":["12","22","34","36","4","N1","N2"],"ezStopTypeName":"Navigation.StopType.Urban","passingLines":{"1":[{"lineType":"bus","lines":["12","22","34","36","4","N1"]}],"2":[{"lineType":"bus","lines":["12","22","34","36","4","N1","N2"]}]},"subRegion":"SK;Pre\u0161ovsk\u00fd kraj;Pre\u0161ov"},{"stopID":1030000222,"stopName":"Ku Brezin\u00e1m","stopRawName":"Pre\u0161ov, Ku Brezin\u00e1m","stopCity":"Pre\u0161ov","latitude":null,"longitude":null,"iconName":"stop_urban","forUrbanPublicTransport":true,"forBusTransport":false,"forRail":false,"POIData":false,"platforms":[{"platformNumber":1,"latitude":48.9872,"longitude":21.2248,"tooltip":"Ku Brezin\u00e1m"},{"platformNumber":2,"latitude":48.9872,"longitude":21.2248,"tooltip":"Ku Brezin\u00e1m"}],"ezLines":["27"],"ezStopTypeName":"Navigation.StopType.Urban","passingLines":{"1":[{"lineType":"bus","lines":["27"]}],"2":[{"lineType":"bus","lines":["27"]}]},"subRegion":"SK;Pre\u0161ovsk\u00fd kraj;Pre\u0161ov"},{"stopID":1030000064,"stopName":"Koll\u00e1rova","stopRawName":"Pre\u0161ov, Koll\u00e1rova","stopCity":"Pre\u0161ov","latitude":null,"longitude":null,"iconName":"stop_urban","forUrbanPublicTransport":true,"forBusTransport":false,"forRail":false,"POIData":false,"platforms":[{"platformNumber":1,"latitude":48.9921,"longitude":21.2247,"tooltip":"Koll\u00e1rova"},{"platformNumber":2,"latitude":48.9921,"longitude":21.2247,"tooltip":"Koll\u00e1rova"}],"ezLines":["12","15","24","43"],"ezStopTypeName":"Navigation.StopType.Urban","passingLines":{"1":[{"lineType":"bus","lines":["12","15","43"]}],"2":[{"lineType":"bus","lines":["12","15","24"]}]},"subRegion":"SK;Pre\u0161ovsk\u00fd kraj;Pre\u0161ov"},{"stopID":1030000445,"stopName":"Suvorovova","stopRawName":"Pre\u0161ov, Suvorovova","stopCity":"Pre\u0161ov","latitude":null,"longitude":null,"iconName":"stop_urban","forUrbanPublicTransport":true,"forBusTransport":false,"forRail":false,"POIData":false,"platforms":[{"platformNumber":1,"latitude":48.976296,"longitude":21.266275,"tooltip":"Suvorovova"},{"platformNumber":2,"latitude":48.976296,"longitude":21.266275,"tooltip":"Suvorovova"}],"ezLines":["11"],"ezStopTypeName":"Navigation.StopType.Urban","passingLines":{"1":[{"lineType":"bus","lines":["11"]}],"2":[{"lineType":"bus","lines":["11"]}]},"subRegion":"SK;Pre\u0161ovsk\u00fd kraj;Pre\u0161ov"},{"stopID":1030000170,"stopName":"Centr\u00e1l","stopRawName":"Pre\u0161ov, Centr\u00e1l","stopCity":"Pre\u0161ov","latitude":null,"longitude":null,"iconName":"stop_urban","forUrbanPublicTransport":true,"forBusTransport":false,"forRail":false,"POIData":false,"platforms":[{"platformNumber":1,"latitude":48.9981,"longitude":21.2272,"tooltip":"Centr\u00e1l"},{"platformNumber":2,"latitude":48.9981,"longitude":21.2272,"tooltip":"Centr\u00e1l"}],"ezLines":["15"],"ezStopTypeName":"Navigation.StopType.Urban","passingLines":{"1":[{"lineType":"bus","lines":["15"]}],"2":[{"lineType":"bus","lines":["15"]}]},"subRegion":"SK;Pre\u0161ovsk\u00fd kraj;Pre\u0161ov"},{"stopID":1030000017,"stopName":"Lomnick\u00e1","stopRawName":"Pre\u0161ov, Lomnick\u00e1","stopCity":"Pre\u0161ov","latitude":null,"longitude":null,"iconName":"stop_urban","forUrbanPublicTransport":true,"forBusTransport":false,"forRail":false,"POIData":false,"platforms":[{"platformNumber":1,"latitude":48.9741,"longitude":21.2617,"tooltip":"Lomnick\u00e1"},{"platformNumber":2,"latitude":48.9741,"longitude":21.2617,"tooltip":"Lomnick\u00e1"}],"ezLines":["10","19","28","33","34","35","37","39","45","N1","N2"],"ezStopTypeName":"Navigation.StopType.Urban","passingLines":{"1":[{"lineType":"bus","lines":["10","19","28","33","34","35","39","45","N1","N2"]}],"2":[{"lineType":"bus","lines":["10","19","28","33","34","37","39","45","N1","N2"]}]},"subRegion":"SK;Pre\u0161ovsk\u00fd kraj;Pre\u0161ov"},{"stopID":1030000027,"stopName":"Prame\u0148","stopRawName":"Pre\u0161ov, Prame\u0148","stopCity":"Pre\u0161ov","latitude":null,"longitude":null,"iconName":"stop_urban","forUrbanPublicTransport":true,"forBusTransport":false,"forRail":false,"POIData":false,"platforms":[{"platformNumber":1,"latitude":48.9788,"longitude":21.2712,"tooltip":"Prame\u0148"},{"platformNumber":2,"latitude":48.9788,"longitude":21.2712,"tooltip":"Prame\u0148"}],"ezLines":["1","46","N1"],"ezStopTypeName":"Navigation.StopType.Urban","passingLines":{"1":[{"lineType":"bus","lines":["1","46"]}],"2":[{"lineType":"bus","lines":["1","46","N1"]}]},"subRegion":"SK;Pre\u0161ovsk\u00fd kraj;Pre\u0161ov"},{"stopID":1030000096,"stopName":"Kuku\u010d\u00ednova","stopRawName":"Pre\u0161ov, Kuku\u010d\u00ednova","stopCity":"Pre\u0161ov","latitude":null,"longitude":null,"iconName":"stop_urban","forUrbanPublicTransport":true,"forBusTransport":false,"forRail":false,"POIData":false,"platforms":[{"platformNumber":1,"latitude":48.9814,"longitude":21.2743,"tooltip":"Kuku\u010d\u00ednova"},{"platformNumber":2,"latitude":48.9814,"longitude":21.2743,"tooltip":"Kuku\u010d\u00ednova"}],"ezLines":["19","44"],"ezStopTypeName":"Navigation.StopType.Urban","passingLines":{"1":[{"lineType":"bus","lines":["19","44"]}],"2":[{"lineType":"bus","lines":["19","44"]}]},"subRegion":"SK;Pre\u0161ovsk\u00fd kraj;Pre\u0161ov"},{"stopID":1030000060,"stopName":"Sib\u00edrska","stopRawName":"Pre\u0161ov, Sib\u00edrska","stopCity":"Pre\u0161ov","latitude":null,"longitude":null,"iconName":"stop_urban","forUrbanPublicTransport":true,"forBusTransport":false,"forRail":false,"POIData":false,"platforms":[{"platformNumber":1,"latitude":49.0008,"longitude":21.272,"tooltip":"Sib\u00edrska"},{"platformNumber":2,"latitude":49.0008,"longitude":21.272,"tooltip":"Sib\u00edrska"}],"ezLines":["10","12","13","32","32A","34","38","8","N2"],"ezStopTypeName":"Navigation.StopType.Urban","passingLines":{"1":[{"lineType":"bus","lines":["10","12","32","32A","34","38","8","N2"]}],"2":[{"lineType":"bus","lines":["10","12","13","32","34","38","8","N2"]}]},"subRegion":"SK;Pre\u0161ovsk\u00fd kraj;Pre\u0161ov"},{"stopID":1030000063,"stopName":"S\u00e1zavsk\u00e9ho","stopRawName":"Pre\u0161ov, S\u00e1zavsk\u00e9ho","stopCity":"Pre\u0161ov","latitude":null,"longitude":null,"iconName":"stop_urban","forUrbanPublicTransport":true,"forBusTransport":false,"forRail":false,"POIData":false,"platforms":[{"platformNumber":1,"latitude":48.9943,"longitude":21.2234,"tooltip":"S\u00e1zavsk\u00e9ho"},{"platformNumber":2,"latitude":48.9943,"longitude":21.2234,"tooltip":"S\u00e1zavsk\u00e9ho"}],"ezLines":["12","15","24","43"],"ezStopTypeName":"Navigation.StopType.Urban","passingLines":{"1":[{"lineType":"bus","lines":["12","15","43"]}],"2":[{"lineType":"bus","lines":["12","15","24"]}]},"subRegion":"SK;Pre\u0161ovsk\u00fd kraj;Pre\u0161ov"},{"stopID":1030000207,"stopName":"Pod Wilec. h\u00f4rkou","stopRawName":"Pre\u0161ov, Pod Wilec. h\u00f4rkou","stopCity":"Pre\u0161ov","latitude":null,"longitude":null,"iconName":"stop_urban","forUrbanPublicTransport":true,"forBusTransport":false,"forRail":false,"POIData":false,"platforms":[{"platformNumber":1,"latitude":48.9718,"longitude":21.2438,"tooltip":"Pod Wilec. h\u00f4rkou"},{"platformNumber":2,"latitude":48.9718,"longitude":21.2438,"tooltip":"Pod Wilec. h\u00f4rkou"}],"ezLines":["42"],"ezStopTypeName":"Navigation.StopType.Urban","passingLines":{"1":[{"lineType":"bus","lines":["42"]}],"2":[{"lineType":"bus","lines":["42"]}]},"subRegion":"SK;Pre\u0161ovsk\u00fd kraj;Pre\u0161ov"},{"stopID":1314,"stopName":"Sabinovsk\u00e1","stopRawName":"Pre\u0161ov, Sabinovsk\u00e1","stopCity":"Pre\u0161ov","latitude":null,"longitude":null,"iconName":"stop","forUrbanPublicTransport":false,"forBusTransport":true,"forRail":false,"POIData":false,"platforms":[{"platformNumber":1,"latitude":49.00655,"longitude":21.238291,"tooltip":"Pre\u0161ov, Sabinovsk\u00e1"}],"ezLines":["707435","707436","707437"],"ezStopTypeName":"Navigation.StopType.Bus","passingLines":[],"subRegion":"SK;Pre\u0161ovsk\u00fd kraj;Pre\u0161ov"},{"stopID":1030000018,"stopName":"Bj\u00f6rnsonova","stopRawName":"Pre\u0161ov, Bj\u00f6rnsonova","stopCity":"Pre\u0161ov","latitude":null,"longitude":null,"iconName":"stop_urban","forUrbanPublicTransport":true,"forBusTransport":false,"forRail":false,"POIData":false,"platforms":[{"platformNumber":2,"latitude":49.0062,"longitude":21.2371,"tooltip":"Bj\u00f6rnsonova"}],"ezLines":["39"],"ezStopTypeName":"Navigation.StopType.Urban","passingLines":{"2":[{"lineType":"bus","lines":["39"]}]},"subRegion":"SK;Pre\u0161ovsk\u00fd kraj;Pre\u0161ov"},{"stopID":1030000007,"stopName":"Sabinovsk\u00e1","stopRawName":"Pre\u0161ov, Sabinovsk\u00e1","stopCity":"Pre\u0161ov","latitude":null,"longitude":null,"iconName":"stop_urban","forUrbanPublicTransport":true,"forBusTransport":false,"forRail":false,"POIData":false,"platforms":[{"platformNumber":1,"latitude":49.0066,"longitude":21.2383,"tooltip":"Sabinovsk\u00e1"},{"platformNumber":2,"latitude":49.0066,"longitude":21.2383,"tooltip":"Sabinovsk\u00e1"}],"ezLines":["14","2","22","39","43","45","5","N2"],"ezStopTypeName":"Navigation.StopType.Urban","passingLines":{"1":[{"lineType":"bus","lines":["14","22","39","43","45","5","N2"]}],"2":[{"lineType":"bus","lines":["14","2","22","45"]}]},"subRegion":"SK;Pre\u0161ovsk\u00fd kraj;Pre\u0161ov"},{"stopID":1030000024,"stopName":"R\u00e1zc. K\u00faty","stopRawName":"Pre\u0161ov, R\u00e1zc. K\u00faty","stopCity":"Pre\u0161ov","latitude":null,"longitude":null,"iconName":"stop_urban","forUrbanPublicTransport":true,"forBusTransport":false,"forRail":false,"POIData":false,"platforms":[{"platformNumber":1,"latitude":49.0084,"longitude":21.2501,"tooltip":"R\u00e1zc. K\u00faty"},{"platformNumber":2,"latitude":49.0084,"longitude":21.2501,"tooltip":"R\u00e1zc. K\u00faty"}],"ezLines":["1","17","21","28","35","7"],"ezStopTypeName":"Navigation.StopType.Urban","passingLines":{"1":[{"lineType":"bus","lines":["1","17","21","28","35","7"]}],"2":[{"lineType":"bus","lines":["1","17","21","28","7"]}]},"subRegion":"SK;Pre\u0161ovsk\u00fd kraj;Pre\u0161ov"},{"stopID":1030000221,"stopName":"S\u00fa\u013eovsk\u00e1","stopRawName":"Pre\u0161ov, S\u00fa\u013eovsk\u00e1","stopCity":"Pre\u0161ov","latitude":null,"longitude":null,"iconName":"stop_urban","forUrbanPublicTransport":true,"forBusTransport":false,"forRail":false,"POIData":false,"platforms":[{"platformNumber":1,"latitude":48.9884,"longitude":21.2221,"tooltip":"S\u00fa\u013eovsk\u00e1"},{"platformNumber":2,"latitude":48.9884,"longitude":21.2221,"tooltip":"S\u00fa\u013eovsk\u00e1"}],"ezLines":["27"],"ezStopTypeName":"Navigation.StopType.Urban","passingLines":{"1":[{"lineType":"bus","lines":["27"]}],"2":[{"lineType":"bus","lines":["27"]}]},"subRegion":"SK;Pre\u0161ovsk\u00fd kraj;Pre\u0161ov"},{"stopID":16765,"stopName":"Ko\u0161ick\u00e1","stopRawName":"Pre\u0161ov, Ko\u0161ick\u00e1","stopCity":"Pre\u0161ov","latitude":null,"longitude":null,"iconName":"stop","forUrbanPublicTransport":false,"forBusTransport":true,"forRail":false,"POIData":false,"platforms":[{"platformNumber":1,"latitude":48.971173,"longitude":21.253001,"tooltip":"Pre\u0161ov, Ko\u0161ick\u00e1"},{"platformNumber":2,"latitude":48.9724,"longitude":21.25292,"tooltip":"Pre\u0161ov, Ko\u0161ick\u00e1"}],"ezLines":["707403","707405","707407","707408"],"ezStopTypeName":"Navigation.StopType.Bus","passingLines":[],"subRegion":"SK;Pre\u0161ovsk\u00fd kraj;Pre\u0161ov"},{"stopID":1030000099,"stopName":"K Surdoku","stopRawName":"Pre\u0161ov, K Surdoku","stopCity":"Pre\u0161ov","latitude":null,"longitude":null,"iconName":"stop_urban","forUrbanPublicTransport":true,"forBusTransport":false,"forRail":false,"POIData":false,"platforms":[{"platformNumber":1,"latitude":49.0086,"longitude":21.2482,"tooltip":"K Surdoku"},{"platformNumber":2,"latitude":49.0086,"longitude":21.2482,"tooltip":"K Surdoku"}],"ezLines":["41"],"ezStopTypeName":"Navigation.StopType.Urban","passingLines":{"1":[{"lineType":"bus","lines":["41"]}],"2":[{"lineType":"bus","lines":["41"]}]},"subRegion":"SK;Pre\u0161ovsk\u00fd kraj;Pre\u0161ov"},{"stopID":16702,"stopName":"M\u00fazeum Solivar","stopRawName":"Pre\u0161ov, M\u00fazeum Solivar","stopCity":"Pre\u0161ov","latitude":null,"longitude":null,"iconName":"stop","forUrbanPublicTransport":false,"forBusTransport":true,"forRail":false,"POIData":false,"platforms":[{"platformNumber":1,"latitude":48.979544,"longitude":21.274746,"tooltip":"Pre\u0161ov, M\u00fazeum Solivar"},{"platformNumber":2,"latitude":48.979389,"longitude":21.274113,"tooltip":"Pre\u0161ov, M\u00fazeum Solivar"}],"ezLines":["707401","707403"],"ezStopTypeName":"Navigation.StopType.Bus","passingLines":[],"subRegion":"SK;Pre\u0161ovsk\u00fd kraj;Pre\u0161ov"},{"stopID":1030000439,"stopName":"M\u00fazeum Solivar","stopRawName":"Pre\u0161ov, M\u00fazeum Solivar","stopCity":"Pre\u0161ov","latitude":null,"longitude":null,"iconName":"stop_urban","forUrbanPublicTransport":true,"forBusTransport":false,"forRail":false,"POIData":false,"platforms":[{"platformNumber":1,"latitude":48.9796,"longitude":21.2749,"tooltip":"M\u00fazeum Solivar"},{"platformNumber":2,"latitude":48.9796,"longitude":21.2749,"tooltip":"M\u00fazeum Solivar"}],"ezLines":["1","46","N1"],"ezStopTypeName":"Navigation.StopType.Urban","passingLines":{"1":[{"lineType":"bus","lines":["1","46"]}],"2":[{"lineType":"bus","lines":["1","46","N1"]}]},"subRegion":"SK;Pre\u0161ovsk\u00fd kraj;Pre\u0161ov"},{"stopID":1030000016,"stopName":"\u0160v\u00e1bska","stopRawName":"Pre\u0161ov, \u0160v\u00e1bska","stopCity":"Pre\u0161ov","latitude":null,"longitude":null,"iconName":"stop_urban","forUrbanPublicTransport":true,"forBusTransport":false,"forRail":false,"POIData":false,"platforms":[{"platformNumber":1,"latitude":48.9713,"longitude":21.2585,"tooltip":"\u0160v\u00e1bska"},{"platformNumber":2,"latitude":48.9713,"longitude":21.2585,"tooltip":"\u0160v\u00e1bska"}],"ezLines":["10","19","28","33","34","35","37","39","45","N1","N2"],"ezStopTypeName":"Navigation.StopType.Urban","passingLines":{"1":[{"lineType":"bus","lines":["10","19","28","33","34","35","45","N1","N2"]}],"2":[{"lineType":"bus","lines":["10","19","28","33","34","37","39","45","N1","N2"]}]},"subRegion":"SK;Pre\u0161ovsk\u00fd kraj;Pre\u0161ov"},{"stopID":1030000173,"stopName":"Okt\u00f3brov\u00e1","stopRawName":"Pre\u0161ov, Okt\u00f3brov\u00e1","stopCity":"Pre\u0161ov","latitude":null,"longitude":null,"iconName":"stop_urban","forUrbanPublicTransport":true,"forBusTransport":false,"forRail":false,"POIData":false,"platforms":[{"platformNumber":2,"latitude":48.9971,"longitude":21.2229,"tooltip":"Okt\u00f3brov\u00e1"}],"ezLines":["15"],"ezStopTypeName":"Navigation.StopType.Urban","passingLines":{"2":[{"lineType":"bus","lines":["15"]}]},"subRegion":"SK;Pre\u0161ovsk\u00fd kraj;Pre\u0161ov"},{"stopID":1030000442,"stopName":"Cintor\u00edn - Solivar","stopRawName":"Pre\u0161ov, Cintor\u00edn - Solivar","stopCity":"Pre\u0161ov","latitude":null,"longitude":null,"iconName":"stop_urban","forUrbanPublicTransport":true,"forBusTransport":false,"forRail":false,"POIData":false,"platforms":[{"platformNumber":1,"latitude":48.974493,"longitude":21.268871,"tooltip":"Cintor\u00edn - Solivar"},{"platformNumber":2,"latitude":48.974493,"longitude":21.268871,"tooltip":"Cintor\u00edn - Solivar"}],"ezLines":["11"],"ezStopTypeName":"Navigation.StopType.Urban","passingLines":{"1":[{"lineType":"bus","lines":["11"]}],"2":[{"lineType":"bus","lines":["11"]}]},"subRegion":"SK;Pre\u0161ovsk\u00fd kraj;Pre\u0161ov"},{"stopID":1030000015,"stopName":"Chalupkova","stopRawName":"Pre\u0161ov, Chalupkova","stopCity":"Pre\u0161ov","latitude":null,"longitude":null,"iconName":"stop_urban","forUrbanPublicTransport":true,"forBusTransport":false,"forRail":false,"POIData":false,"platforms":[{"platformNumber":1,"latitude":48.9705,"longitude":21.2552,"tooltip":"Chalupkova"},{"platformNumber":2,"latitude":48.9705,"longitude":21.2552,"tooltip":"Chalupkova"}],"ezLines":["10","19","34","37","39","N1","N2"],"ezStopTypeName":"Navigation.StopType.Urban","passingLines":{"1":[{"lineType":"bus","lines":["10","19","34","N1","N2"]}],"2":[{"lineType":"bus","lines":["10","19","34","37","39","N1","N2"]}]},"subRegion":"SK;Pre\u0161ovsk\u00fd kraj;Pre\u0161ov"},{"stopID":1030000142,"stopName":"Z\u00e1hrad. osada","stopRawName":"Pre\u0161ov, Z\u00e1hrad. osada","stopCity":"Pre\u0161ov","latitude":null,"longitude":null,"iconName":"stop_urban","forUrbanPublicTransport":true,"forBusTransport":false,"forRail":false,"POIData":false,"platforms":[{"platformNumber":1,"latitude":48.9857,"longitude":21.2211,"tooltip":"Z\u00e1hrad. osada"},{"platformNumber":2,"latitude":48.9857,"longitude":21.2211,"tooltip":"Z\u00e1hrad. osada"}],"ezLines":["15"],"ezStopTypeName":"Navigation.StopType.Urban","passingLines":{"1":[{"lineType":"bus","lines":["15"]}],"2":[{"lineType":"bus","lines":["15"]}]},"subRegion":"SK;Pre\u0161ovsk\u00fd kraj;Pre\u0161ov"}]}