[{"number":"12","numberAlt":null,"direction":1,"lat":49.02384,"lng":21.22978,"departure":"18:30","delay":22,"vehicle":378,"station":"Prostějovská","isTechnical":false,"Id":1,"Type":"MHD","CurrentTime":1590599304324},{"number":"39","numberAlt":null,"direction":1,"lat":48.97345,"lng":21.26132,"departure":"19:08","delay":-13,"vehicle":398,"station":"Lomnická","isTechnical":false,"Id":2,"Type":"MHD","CurrentTime":1590599304324},{"number":"19","numberAlt":null,"direction":0,"lat":48.98203,"lng":21.27362,"departure":"19:07","delay":-11,"vehicle":385,"station":"Solivar","isTechnical":false,"Id":3,"Type":"MHD","CurrentTime":1590599304324},{"number":"13","numberAlt":null,"direction":1,"lat":49.00056,"lng":21.26907,"departure":"19:00","delay":53,"vehicle":395,"station":"Nižnianska","isTechnical":false,"Id":4,"Type":"MHD","CurrentTime":1590599304324},{"number":"28","numberAlt":null,"direction":1,"lat":49.00021,"lng":21.23931,"departure":"18:50","delay":-79,"vehicle":393,"station":"Na Hlavnej","isTechnical":false,"Id":5,"Type":"MHD","CurrentTime":1590599304324},{"number":"8","numberAlt":null,"direction":0,"lat":49.00003,"lng":21.22957,"departure":"19:00","delay":12,"vehicle":718,"station":"Clementisova","isTechnical":false,"Id":6,"Type":"MHD","CurrentTime":1590599304324},{"number":"1","numberAlt":null,"direction":0,"lat":49.00839,"lng":21.25006,"departure":"19:02","delay":-22,"vehicle":3432,"station":"Dopravný podnik","isTechnical":false,"Id":7,"Type":"MHD","CurrentTime":1590599304324},{"number":"38","numberAlt":null,"direction":1,"lat":49.00088,"lng":21.27195,"departure":"19:08","delay":-4,"vehicle":730,"station":"Sibírska","isTechnical":false,"Id":8,"Type":"MHD","CurrentTime":1590599304324},{"number":"46","numberAlt":null,"direction":1,"lat":48.99233,"lng":21.24774,"departure":"18:50","delay":-2,"vehicle":379,"station":"Čierny most","isTechnical":false,"Id":9,"Type":"MHD","CurrentTime":1590599304324},{"number":"4","numberAlt":null,"direction":0,"lat":48.98264,"lng":21.25268,"departure":"18:50","delay":99,"vehicle":720,"station":"Železničná stanica","isTechnical":false,"Id":10,"Type":"MHD","CurrentTime":1590599304324},{"number":"18","numberAlt":null,"direction":0,"lat":48.98057,"lng":21.17443,"departure":"19:00","delay":2,"vehicle":391,"station":"Čertov kameň","isTechnical":false,"Id":11,"Type":"MHD","CurrentTime":1590599304324},{"number":"8","numberAlt":null,"direction":0,"lat":48.98857,"lng":21.26513,"departure":"18:40","delay":-170,"vehicle":724,"station":"Martina Benku","isTechnical":false,"Id":12,"Type":"MHD","CurrentTime":1590599304324},{"number":"4","numberAlt":null,"direction":1,"lat":49.00163,"lng":21.22443,"departure":"18:46","delay":-16,"vehicle":725,"station":"Poliklinika","isTechnical":false,"Id":13,"Type":"MHD","CurrentTime":1590599304324},{"number":"45","numberAlt":null,"direction":0,"lat":49.03159,"lng":21.21328,"departure":"19:00","delay":-71,"vehicle":354,"station":"Pivovar","isTechnical":false,"Id":14,"Type":"MHD","CurrentTime":1590599304324},{"number":"32","numberAlt":null,"direction":1,"lat":48.99323,"lng":21.26721,"departure":"18:58","delay":-53,"vehicle":397,"station":"Rusínska","isTechnical":false,"Id":15,"Type":"MHD","CurrentTime":1590599304324},{"number":"29","numberAlt":null,"direction":0,"lat":49.00367,"lng":21.2208,"departure":"19:03","delay":31,"vehicle":358,"station":"Námestie Kráľovnej pokoja","isTechnical":false,"Id":16,"Type":"MHD","CurrentTime":1590599304324},{"number":"15","numberAlt":null,"direction":0,"lat":48.99636,"lng":21.25265,"departure":"18:48","delay":-19,"vehicle":396,"station":"Grešova","isTechnical":false,"Id":17,"Type":"MHD","CurrentTime":1590599304324},{"number":"2","numberAlt":null,"direction":0,"lat":48.98697,"lng":21.24312,"departure":"19:05","delay":-8,"vehicle":736,"station":"Priemyselné centrum","isTechnical":false,"Id":18,"Type":"MHD","CurrentTime":1590599304324},{"number":"8","numberAlt":null,"direction":1,"lat":48.98648,"lng":21.24893,"departure":"18:55","delay":-96,"vehicle":722,"station":"Železničná stanica","isTechnical":false,"Id":19,"Type":"MHD","CurrentTime":1590599304324},{"number":"11","numberAlt":null,"direction":1,"lat":48.97756,"lng":21.27705,"departure":"19:08","delay":-2,"vehicle":380,"station":"Solivar","isTechnical":false,"Id":20,"Type":"MHD","CurrentTime":1590599304324},{"number":"1","numberAlt":null,"direction":1,"lat":48.98049,"lng":21.25836,"departure":"19:02","delay":-119,"vehicle":3418,"station":"Solivarská","isTechnical":false,"Id":21,"Type":"MHD","CurrentTime":1590599304324},{"number":"38","numberAlt":null,"direction":0,"lat":48.98583,"lng":21.23931,"departure":"18:55","delay":7,"vehicle":716,"station":"Vysokoškolský areál","isTechnical":false,"Id":22,"Type":"MHD","CurrentTime":1590599304324},{"number":"4","numberAlt":null,"direction":1,"lat":48.99023,"lng":21.26689,"departure":"19:06","delay":-22,"vehicle":728,"station":"Vansovej","isTechnical":false,"Id":23,"Type":"MHD","CurrentTime":1590599304324},{"number":"38","numberAlt":null,"direction":1,"lat":48.99717,"lng":21.22853,"departure":"18:48","delay":-96,"vehicle":731,"station":"Námestie mládeže","isTechnical":false,"Id":24,"Type":"MHD","CurrentTime":1590599304324},{"number":"2","numberAlt":null,"direction":1,"lat":48.99205,"lng":21.23391,"departure":"18:50","delay":-50,"vehicle":732,"station":"Vysokoškolský areál","isTechnical":false,"Id":25,"Type":"MHD","CurrentTime":1590599304324},{"number":"22","numberAlt":null,"direction":0,"lat":48.99277,"lng":21.26673,"departure":"19:02","delay":4,"vehicle":3436,"station":"Laca Novomeského","isTechnical":false,"Id":26,"Type":"MHD","CurrentTime":1590599304324},{"number":"10","numberAlt":null,"direction":0,"lat":48.98298,"lng":21.24997,"departure":"18:59","delay":51,"vehicle":362,"station":"Čierny most","isTechnical":false,"Id":27,"Type":"MHD","CurrentTime":1590599304324}]