{"error":null,"busses":[{"number":"39","numberAlt":null,"direction":0,"lat":48.97793,"lng":21.2633,"departure":"16:45","delay":28,"vehicle":398,"station":"Škára","isTechnical":false},{"number":"45","numberAlt":null,"direction":1,"lat":48.99456,"lng":21.24299,"departure":"16:50","delay":-110,"vehicle":393,"station":"Divadlo Jonáša Záborského","isTechnical":false},{"number":"8","numberAlt":null,"direction":1,"lat":49.01692,"lng":21.22339,"departure":"16:35","delay":-209,"vehicle":718,"station":"VUKOV","isTechnical":false},{"number":"5","numberAlt":"5D","direction":0,"lat":49.01197,"lng":21.23697,"departure":"16:50","delay":-12,"vehicle":735,"station":"Mičurinova","isTechnical":false},{"number":"1","numberAlt":null,"direction":0,"lat":49.02128,"lng":21.27627,"departure":"17:02","delay":-128,"vehicle":360,"station":"Pažica","isTechnical":false},{"number":"1","numberAlt":null,"direction":1,"lat":48.97943,"lng":21.2604,"departure":"17:02","delay":-17,"vehicle":3432,"station":"Solivarská","isTechnical":false},{"number":"8","numberAlt":null,"direction":1,"lat":48.98437,"lng":21.24982,"departure":"16:55","delay":-34,"vehicle":723,"station":"Škára","isTechnical":false},{"number":"38","numberAlt":null,"direction":0,"lat":48.99065,"lng":21.23501,"departure":"16:55","delay":31,"vehicle":730,"station":"Duchnovičovo námestie","isTechnical":false},{"number":"38","numberAlt":null,"direction":1,"lat":48.98855,"lng":21.23683,"departure":"16:48","delay":-171,"vehicle":727,"station":"Škultétyho","isTechnical":false},{"number":"4","numberAlt":null,"direction":1,"lat":49.00078,"lng":21.23324,"departure":"16:46","delay":-71,"vehicle":720,"station":"Trojica","isTechnical":false},{"number":"22","numberAlt":null,"direction":0,"lat":48.99023,"lng":21.26689,"departure":"16:57","delay":46,"vehicle":391,"station":"Vansovej","isTechnical":false},{"number":"4","numberAlt":null,"direction":0,"lat":48.99294,"lng":21.24419,"departure":"16:50","delay":-57,"vehicle":725,"station":"Na Hlavnej","isTechnical":false},{"number":"45","numberAlt":null,"direction":0,"lat":49.04122,"lng":21.21262,"departure":"17:00","delay":-47,"vehicle":354,"station":"Pivovar","isTechnical":false},{"number":"32A","numberAlt":null,"direction":0,"lat":48.99917,"lng":21.26973,"departure":"17:05","delay":-20,"vehicle":397,"station":"Sibírska","isTechnical":false},{"number":"29","numberAlt":null,"direction":0,"lat":49.01418,"lng":21.22276,"departure":"17:03","delay":5,"vehicle":358,"station":"Centrum","isTechnical":false},{"number":"15","numberAlt":null,"direction":0,"lat":48.99469,"lng":21.25088,"departure":"16:48","delay":29,"vehicle":396,"station":"Grešova","isTechnical":false},{"number":"21","numberAlt":null,"direction":1,"lat":49.05254,"lng":21.28607,"departure":"16:18","delay":-606,"vehicle":357,"station":"Námestie J. Kolarčíka","isTechnical":false},{"number":"2","numberAlt":null,"direction":1,"lat":48.99017,"lng":21.24645,"departure":"16:50","delay":-205,"vehicle":736,"station":"Veľká pošta","isTechnical":false},{"number":"8","numberAlt":null,"direction":0,"lat":48.98389,"lng":21.26386,"departure":"16:40","delay":-135,"vehicle":722,"station":"Pavla Horova","isTechnical":false},{"number":"1","numberAlt":null,"direction":0,"lat":48.97938,"lng":21.27428,"departure":"16:32","delay":-692,"vehicle":3418,"station":"Prameň","isTechnical":false},{"number":"2","numberAlt":null,"direction":0,"lat":48.98147,"lng":21.2437,"departure":"17:05","delay":32,"vehicle":733,"station":"Pekárne","isTechnical":false},{"number":"8","numberAlt":null,"direction":0,"lat":49.00276,"lng":21.22118,"departure":"17:00","delay":9,"vehicle":731,"station":"Volgogradská","isTechnical":false},{"number":"14","numberAlt":null,"direction":1,"lat":48.95704,"lng":21.25766,"departure":"16:55","delay":-51,"vehicle":365,"station":"Vysielač","isTechnical":false},{"number":"32","numberAlt":null,"direction":1,"lat":48.9912,"lng":21.25591,"departure":"16:58","delay":-68,"vehicle":351,"station":"Čierny most","isTechnical":false},{"number":"18","numberAlt":null,"direction":0,"lat":48.96166,"lng":21.16506,"departure":"17:00","delay":-78,"vehicle":3436,"station":"OcÚ Bzenov","isTechnical":false},{"number":"#R","numberAlt":null,"direction":1,"lat":48.9671,"lng":21.25631,"departure":"17:00","delay":157,"vehicle":344,"station":"Pod Šalgovíkom","isTechnical":true},{"number":"46","numberAlt":null,"direction":1,"lat":48.98197,"lng":21.28769,"departure":"17:00","delay":55,"vehicle":352,"station":"Záhradky","isTechnical":false},{"number":"13","numberAlt":null,"direction":1,"lat":49.01958,"lng":21.28487,"departure":"17:00","delay":-316,"vehicle":387,"station":"Limbová","isTechnical":false},{"number":"#Z","numberAlt":null,"direction":1,"lat":49.02107,"lng":21.23304,"departure":"17:05","delay":29,"vehicle":359,"station":"Sídlisko III","isTechnical":true},{"number":"36","numberAlt":null,"direction":1,"lat":48.99066,"lng":21.26586,"departure":"16:53","delay":-63,"vehicle":3437,"station":"Rusínska","isTechnical":false},{"number":"28","numberAlt":null,"direction":1,"lat":48.99982,"lng":21.23945,"departure":"17:00","delay":33,"vehicle":367,"station":"Na Hlavnej","isTechnical":false},{"number":"44","numberAlt":null,"direction":1,"lat":48.99113,"lng":21.24569,"departure":"17:05","delay":-14,"vehicle":366,"station":"Veľká pošta","isTechnical":false},{"number":"13","numberAlt":null,"direction":1,"lat":49.01683,"lng":21.32032,"departure":"17:03","delay":-16,"vehicle":368,"station":"Rázcestie Vyšná Šebastová","isTechnical":false},{"number":"22","numberAlt":null,"direction":1,"lat":49.01499,"lng":21.2366,"departure":"17:00","delay":-6,"vehicle":353,"station":"Rázcestie Šidlovec","isTechnical":false},{"number":"10","numberAlt":null,"direction":0,"lat":48.98965,"lng":21.24686,"departure":"16:59","delay":53,"vehicle":362,"station":"Čierny most","isTechnical":false}]}