{"error":null,"busses":[{"number":"10","numberAlt":null,"direction":1,"lat":48.97094,"lng":21.25335,"departure":"15:37","delay":-136,"vehicle":395,"station":"Chalupkova","isTechnical":false},{"number":"45","numberAlt":null,"direction":1,"lat":49.02891,"lng":21.21809,"departure":"15:20","delay":-282,"vehicle":393,"station":"Dúbrava","isTechnical":false},{"number":"8","numberAlt":null,"direction":1,"lat":49.02092,"lng":21.22484,"departure":"15:15","delay":-402,"vehicle":718,"station":"Centrum","isTechnical":false},{"number":"12","numberAlt":null,"direction":1,"lat":48.99483,"lng":21.23553,"departure":"15:28","delay":57,"vehicle":399,"station":"Kúpeľná","isTechnical":false},{"number":"7","numberAlt":null,"direction":1,"lat":49.00471,"lng":21.2445,"departure":"15:40","delay":-214,"vehicle":735,"station":"Rázcestie Kúty","isTechnical":false},{"number":"1","numberAlt":null,"direction":0,"lat":49.00409,"lng":21.24399,"departure":"15:32","delay":-670,"vehicle":360,"station":"Rázcestie Kúty","isTechnical":false},{"number":"1","numberAlt":null,"direction":1,"lat":49.01374,"lng":21.26553,"departure":"15:32","delay":68,"vehicle":3432,"station":"Dopravný podnik","isTechnical":false},{"number":"2","numberAlt":null,"direction":0,"lat":49.0013,"lng":21.23924,"departure":"15:35","delay":-316,"vehicle":734,"station":"Trojica","isTechnical":false},{"number":"8","numberAlt":null,"direction":1,"lat":48.98975,"lng":21.2469,"departure":"15:35","delay":-165,"vehicle":723,"station":"Železničná stanica","isTechnical":false},{"number":"38","numberAlt":null,"direction":0,"lat":48.98646,"lng":21.24154,"departure":"15:35","delay":-94,"vehicle":730,"station":"Vysokoškolský areál","isTechnical":false},{"number":"45","numberAlt":null,"direction":1,"lat":48.96076,"lng":21.26007,"departure":"15:50","delay":-25,"vehicle":383,"station":"Delňa","isTechnical":false},{"number":"38","numberAlt":null,"direction":1,"lat":48.998,"lng":21.22805,"departure":"15:28","delay":-223,"vehicle":727,"station":"Námestie mládeže","isTechnical":false},{"number":"19","numberAlt":null,"direction":1,"lat":48.97725,"lng":21.26404,"departure":"15:29","delay":-337,"vehicle":394,"station":"Lomnická","isTechnical":false},{"number":"33","numberAlt":null,"direction":1,"lat":48.98328,"lng":21.26353,"departure":"15:35","delay":-217,"vehicle":379,"station":"Pavla Horova","isTechnical":false},{"number":"21","numberAlt":null,"direction":1,"lat":49.01715,"lng":21.27092,"departure":"15:18","delay":-295,"vehicle":381,"station":"Dopravný podnik","isTechnical":false},{"number":"22","numberAlt":null,"direction":0,"lat":49.00133,"lng":21.23923,"departure":"15:27","delay":-136,"vehicle":391,"station":"Trojica","isTechnical":false},{"number":"8","numberAlt":null,"direction":0,"lat":48.99995,"lng":21.22682,"departure":"15:40","delay":-176,"vehicle":724,"station":"Clementisova","isTechnical":false},{"number":"41","numberAlt":null,"direction":1,"lat":49.00503,"lng":21.24485,"departure":"15:38","delay":-121,"vehicle":390,"station":"K Surdoku","isTechnical":false},{"number":"4","numberAlt":null,"direction":1,"lat":48.98729,"lng":21.2644,"departure":"15:46","delay":-54,"vehicle":725,"station":"Laca Novomeského","isTechnical":false},{"number":"45","numberAlt":null,"direction":0,"lat":48.99158,"lng":21.24526,"departure":"15:30","delay":17,"vehicle":354,"station":"Na Hlavnej","isTechnical":false},{"number":"32","numberAlt":null,"direction":1,"lat":48.98987,"lng":21.2498,"departure":"15:38","delay":-409,"vehicle":397,"station":"Čierny most","isTechnical":false},{"number":"39","numberAlt":null,"direction":0,"lat":49.00966,"lng":21.23311,"departure":"15:45","delay":56,"vehicle":358,"station":"Mukačevská","isTechnical":false},{"number":"15","numberAlt":null,"direction":0,"lat":48.98565,"lng":21.22099,"departure":"15:48","delay":-42,"vehicle":396,"station":"Hôrka","isTechnical":false},{"number":"21","numberAlt":null,"direction":0,"lat":49.00465,"lng":21.18098,"departure":"15:10","delay":-275,"vehicle":357,"station":"Rázcestie Malý Šariš","isTechnical":false},{"number":"24","numberAlt":null,"direction":1,"lat":48.98944,"lng":21.24698,"departure":"15:32","delay":-83,"vehicle":386,"station":"Čierny most","isTechnical":false},{"number":"5","numberAlt":null,"direction":1,"lat":48.98981,"lng":21.24671,"departure":"15:40","delay":-42,"vehicle":736,"station":"Čierny most","isTechnical":false},{"number":"8","numberAlt":null,"direction":0,"lat":48.9873,"lng":21.26477,"departure":"15:20","delay":-348,"vehicle":722,"station":"Martina Benku","isTechnical":false},{"number":"11","numberAlt":null,"direction":0,"lat":48.99906,"lng":21.23985,"departure":"15:35","delay":-455,"vehicle":380,"station":"Trojica","isTechnical":false},{"number":"7","numberAlt":null,"direction":0,"lat":48.9876,"lng":21.24491,"departure":"15:45","delay":-108,"vehicle":733,"station":"Štúrova","isTechnical":false},{"number":"27","numberAlt":null,"direction":1,"lat":48.98628,"lng":21.22703,"departure":"15:30","delay":-170,"vehicle":388,"station":"Pod Kamennou baňou","isTechnical":false},{"number":"4","numberAlt":null,"direction":0,"lat":49.02076,"lng":21.22441,"departure":"15:50","delay":15,"vehicle":728,"station":"Sídlisko III","isTechnical":false},{"number":"4","numberAlt":null,"direction":0,"lat":48.98912,"lng":21.24723,"departure":"15:30","delay":-202,"vehicle":731,"station":"Čierny most","isTechnical":false},{"number":"5","numberAlt":null,"direction":0,"lat":49.01634,"lng":21.23628,"departure":"15:20","delay":-809,"vehicle":732,"station":"Pod Skalkou","isTechnical":false},{"number":"14","numberAlt":null,"direction":0,"lat":49.02118,"lng":21.23525,"departure":"15:33","delay":-54,"vehicle":365,"station":"Dúbrava","isTechnical":false},{"number":"34","numberAlt":null,"direction":0,"lat":48.97447,"lng":21.2624,"departure":"15:25","delay":-90,"vehicle":351,"station":"Lomnická","isTechnical":false},{"number":"#R","numberAlt":null,"direction":1,"lat":49.0008,"lng":21.2433,"departure":"15:45","delay":35,"vehicle":3436,"station":"Veľká pošta","isTechnical":true},{"number":"28","numberAlt":null,"direction":0,"lat":49.01202,"lng":21.27845,"departure":"15:49","delay":-67,"vehicle":369,"station":"Ľubotice","isTechnical":false},{"number":"34","numberAlt":null,"direction":1,"lat":48.98954,"lng":21.23597,"departure":"15:33","delay":58,"vehicle":344,"station":"Škultétyho","isTechnical":false},{"number":"13","numberAlt":null,"direction":0,"lat":49.01694,"lng":21.32005,"departure":"15:20","delay":-355,"vehicle":352,"station":"Kamence","isTechnical":false},{"number":"26","numberAlt":null,"direction":1,"lat":48.9558,"lng":21.25759,"departure":"15:47","delay":-29,"vehicle":387,"station":"Hydinárske závody","isTechnical":false},{"number":"14","numberAlt":null,"direction":1,"lat":48.98446,"lng":21.24976,"departure":"15:35","delay":16,"vehicle":3437,"station":"Železničná stanica","isTechnical":false},{"number":"32A","numberAlt":null,"direction":0,"lat":48.99034,"lng":21.25084,"departure":"15:45","delay":51,"vehicle":382,"station":"Hobby park","isTechnical":false},{"number":"18","numberAlt":null,"direction":1,"lat":48.94912,"lng":21.1641,"departure":"15:25","delay":-2,"vehicle":367,"station":"Chatky","isTechnical":false},{"number":"28","numberAlt":null,"direction":0,"lat":48.97408,"lng":21.26171,"departure":"15:19","delay":-225,"vehicle":366,"station":"Škára","isTechnical":false},{"number":"46","numberAlt":null,"direction":0,"lat":48.97849,"lng":21.31517,"departure":"15:30","delay":-390,"vehicle":368,"station":"Záhradky","isTechnical":false},{"number":"38","numberAlt":null,"direction":0,"lat":48.99482,"lng":21.26853,"departure":"15:15","delay":-636,"vehicle":714,"station":"Jurkovičova","isTechnical":false}]}