[{"number":"12","numberAlt":null,"direction":1,"lat":49.02389,"lng":21.22966,"departure":"18:30","delay":36,"vehicle":378,"station":"Prostějovská","isTechnical":false,"Id":0,"Type":"MHD","CurrentTime":1590599289232},{"number":"19","numberAlt":null,"direction":0,"lat":48.98106,"lng":21.27466,"departure":"19:07","delay":-7,"vehicle":385,"station":"Solivar","isTechnical":false,"Id":0,"Type":"MHD","CurrentTime":1590599289232},{"number":"13","numberAlt":null,"direction":1,"lat":49.00236,"lng":21.26774,"departure":"19:00","delay":47,"vehicle":395,"station":"Nižnianska","isTechnical":false,"Id":0,"Type":"MHD","CurrentTime":1590599289232},{"number":"28","numberAlt":null,"direction":1,"lat":49.0002,"lng":21.23932,"departure":"18:50","delay":-66,"vehicle":393,"station":"Na Hlavnej","isTechnical":false,"Id":0,"Type":"MHD","CurrentTime":1590599289232},{"number":"8","numberAlt":null,"direction":0,"lat":48.99965,"lng":21.2278,"departure":"19:00","delay":1,"vehicle":718,"station":"Clementisova","isTechnical":false,"Id":0,"Type":"MHD","CurrentTime":1590599289232},{"number":"1","numberAlt":null,"direction":0,"lat":49.00843,"lng":21.25019,"departure":"19:02","delay":-8,"vehicle":3432,"station":"Dopravný podnik","isTechnical":false,"Id":0,"Type":"MHD","CurrentTime":1590599289232},{"number":"46","numberAlt":null,"direction":1,"lat":48.99148,"lng":21.24825,"departure":"18:50","delay":-8,"vehicle":379,"station":"Čierny most","isTechnical":false,"Id":0,"Type":"MHD","CurrentTime":1590599289232},{"number":"4","numberAlt":null,"direction":0,"lat":48.98173,"lng":21.25177,"departure":"18:50","delay":100,"vehicle":720,"station":"Železničná stanica","isTechnical":false,"Id":0,"Type":"MHD","CurrentTime":1590599289232},{"number":"18","numberAlt":null,"direction":0,"lat":48.97997,"lng":21.17399,"departure":"19:00","delay":2,"vehicle":391,"station":"Čertov kameň","isTechnical":false,"Id":0,"Type":"MHD","CurrentTime":1590599289232},{"number":"8","numberAlt":null,"direction":0,"lat":48.98736,"lng":21.26477,"departure":"18:40","delay":-173,"vehicle":724,"station":"Martina Benku","isTechnical":false,"Id":0,"Type":"MHD","CurrentTime":1590599289232},{"number":"4","numberAlt":null,"direction":1,"lat":49.00114,"lng":21.22566,"departure":"18:46","delay":-34,"vehicle":725,"station":"Poliklinika","isTechnical":false,"Id":0,"Type":"MHD","CurrentTime":1590599289232},{"number":"45","numberAlt":null,"direction":0,"lat":49.03274,"lng":21.21212,"departure":"19:00","delay":-71,"vehicle":354,"station":"Pivovar","isTechnical":false,"Id":0,"Type":"MHD","CurrentTime":1590599289232},{"number":"32","numberAlt":null,"direction":1,"lat":48.9917,"lng":21.26623,"departure":"18:58","delay":-63,"vehicle":397,"station":"Rusínska","isTechnical":false,"Id":0,"Type":"MHD","CurrentTime":1590599289232},{"number":"29","numberAlt":null,"direction":0,"lat":49.00485,"lng":21.22104,"departure":"19:03","delay":29,"vehicle":358,"station":"Námestie Kráľovnej pokoja","isTechnical":false,"Id":0,"Type":"MHD","CurrentTime":1590599289232},{"number":"15","numberAlt":null,"direction":0,"lat":48.99636,"lng":21.25265,"departure":"18:48","delay":-6,"vehicle":396,"station":"Grešova","isTechnical":false,"Id":0,"Type":"MHD","CurrentTime":1590599289232},{"number":"2","numberAlt":null,"direction":0,"lat":48.98662,"lng":21.24274,"departure":"19:05","delay":7,"vehicle":736,"station":"Priemyselné centrum","isTechnical":false,"Id":0,"Type":"MHD","CurrentTime":1590599289232},{"number":"8","numberAlt":null,"direction":1,"lat":48.98493,"lng":21.24956,"departure":"18:55","delay":-111,"vehicle":722,"station":"Železničná stanica","isTechnical":false,"Id":0,"Type":"MHD","CurrentTime":1590599289232},{"number":"11","numberAlt":null,"direction":1,"lat":48.97809,"lng":21.27706,"departure":"19:08","delay":-3,"vehicle":380,"station":"","isTechnical":false,"Id":0,"Type":"MHD","CurrentTime":1590599289232},{"number":"1","numberAlt":null,"direction":1,"lat":48.97941,"lng":21.26042,"departure":"19:02","delay":-128,"vehicle":3418,"station":"Solivarská","isTechnical":false,"Id":0,"Type":"MHD","CurrentTime":1590599289232},{"number":"38","numberAlt":null,"direction":0,"lat":48.98686,"lng":21.23819,"departure":"18:55","delay":-1,"vehicle":716,"station":"Vysokoškolský areál","isTechnical":false,"Id":0,"Type":"MHD","CurrentTime":1590599289232},{"number":"4","numberAlt":null,"direction":1,"lat":48.98978,"lng":21.26748,"departure":"19:06","delay":-25,"vehicle":728,"station":"Vansovej","isTechnical":false,"Id":0,"Type":"MHD","CurrentTime":1590599289232},{"number":"38","numberAlt":null,"direction":1,"lat":48.99588,"lng":21.22924,"departure":"18:48","delay":-110,"vehicle":731,"station":"Námestie mládeže","isTechnical":false,"Id":0,"Type":"MHD","CurrentTime":1590599289232},{"number":"2","numberAlt":null,"direction":1,"lat":48.99115,"lng":21.23467,"departure":"18:50","delay":-48,"vehicle":732,"station":"Vysokoškolský areál","isTechnical":false,"Id":0,"Type":"MHD","CurrentTime":1590599289232},{"number":"22","numberAlt":null,"direction":0,"lat":48.99276,"lng":21.26675,"departure":"19:02","delay":18,"vehicle":3436,"station":"Laca Novomeského","isTechnical":false,"Id":0,"Type":"MHD","CurrentTime":1590599289232},{"number":"10","numberAlt":null,"direction":0,"lat":48.98321,"lng":21.2499,"departure":"18:59","delay":65,"vehicle":362,"station":"Čierny most","isTechnical":false,"Id":0,"Type":"MHD","CurrentTime":1590599289232}]