[{"number":"12","numberAlt":null,"direction":1,"lat":49.02359,"lng":21.22989,"departure":"18:30","delay":22,"vehicle":378,"station":"Prostějovská","isTechnical":false,"Id":1,"Type":"MHD","CurrentTime":1590599328790},{"number":"39","numberAlt":null,"direction":1,"lat":48.97244,"lng":21.26032,"departure":"19:08","delay":-9,"vehicle":398,"station":"Lomnická","isTechnical":false,"Id":2,"Type":"MHD","CurrentTime":1590599328790},{"number":"19","numberAlt":null,"direction":0,"lat":48.9827,"lng":21.27334,"departure":"19:07","delay":-1,"vehicle":385,"station":"Kukučínova","isTechnical":false,"Id":3,"Type":"MHD","CurrentTime":1590599328790},{"number":"13","numberAlt":null,"direction":1,"lat":48.9989,"lng":21.26979,"departure":"19:00","delay":57,"vehicle":395,"station":"Nižnianska","isTechnical":false,"Id":4,"Type":"MHD","CurrentTime":1590599328790},{"number":"28","numberAlt":null,"direction":1,"lat":49.00068,"lng":21.2392,"departure":"18:50","delay":-82,"vehicle":393,"station":"Trojica","isTechnical":false,"Id":5,"Type":"MHD","CurrentTime":1590599328790},{"number":"8","numberAlt":null,"direction":0,"lat":49.00052,"lng":21.23163,"departure":"19:00","delay":26,"vehicle":718,"station":"Clementisova","isTechnical":false,"Id":6,"Type":"MHD","CurrentTime":1590599328790},{"number":"1","numberAlt":null,"direction":0,"lat":49.00781,"lng":21.249,"departure":"19:02","delay":-25,"vehicle":3432,"station":"Dopravný podnik","isTechnical":false,"Id":7,"Type":"MHD","CurrentTime":1590599328790},{"number":"38","numberAlt":null,"direction":1,"lat":49.00056,"lng":21.27047,"departure":"19:08","delay":0,"vehicle":730,"station":"Sibírska","isTechnical":false,"Id":8,"Type":"MHD","CurrentTime":1590599328790},{"number":"46","numberAlt":null,"direction":1,"lat":48.99279,"lng":21.24732,"departure":"18:50","delay":-5,"vehicle":379,"station":"Čierny most","isTechnical":false,"Id":9,"Type":"MHD","CurrentTime":1590599328790},{"number":"4","numberAlt":null,"direction":0,"lat":48.98273,"lng":21.25288,"departure":"18:50","delay":89,"vehicle":720,"station":"Železničná stanica","isTechnical":false,"Id":10,"Type":"MHD","CurrentTime":1590599328790},{"number":"18","numberAlt":null,"direction":0,"lat":48.98218,"lng":21.17516,"departure":"19:00","delay":6,"vehicle":391,"station":"Čertov kameň","isTechnical":false,"Id":11,"Type":"MHD","CurrentTime":1590599328790},{"number":"8","numberAlt":null,"direction":0,"lat":48.98912,"lng":21.26527,"departure":"18:40","delay":-190,"vehicle":724,"station":"Martina Benku","isTechnical":false,"Id":12,"Type":"MHD","CurrentTime":1590599328790},{"number":"4","numberAlt":null,"direction":1,"lat":49.00166,"lng":21.22443,"departure":"18:46","delay":-30,"vehicle":725,"station":"Poliklinika","isTechnical":false,"Id":13,"Type":"MHD","CurrentTime":1590599328790},{"number":"45","numberAlt":null,"direction":0,"lat":49.03029,"lng":21.21468,"departure":"19:00","delay":-72,"vehicle":354,"station":"Pivovar","isTechnical":false,"Id":14,"Type":"MHD","CurrentTime":1590599328790},{"number":"32","numberAlt":null,"direction":1,"lat":48.99423,"lng":21.26816,"departure":"18:58","delay":-48,"vehicle":397,"station":"Rusínska","isTechnical":false,"Id":15,"Type":"MHD","CurrentTime":1590599328790},{"number":"29","numberAlt":null,"direction":0,"lat":49.003,"lng":21.22069,"departure":"19:03","delay":30,"vehicle":358,"station":"Námestie Kráľovnej pokoja","isTechnical":false,"Id":16,"Type":"MHD","CurrentTime":1590599328790},{"number":"15","numberAlt":null,"direction":0,"lat":48.99636,"lng":21.25265,"departure":"18:48","delay":-33,"vehicle":396,"station":"Grešova","isTechnical":false,"Id":17,"Type":"MHD","CurrentTime":1590599328790},{"number":"2","numberAlt":null,"direction":0,"lat":48.98733,"lng":21.2442,"departure":"19:05","delay":9,"vehicle":736,"station":"Štúrova","isTechnical":false,"Id":18,"Type":"MHD","CurrentTime":1590599328790},{"number":"8","numberAlt":null,"direction":1,"lat":48.98761,"lng":21.24832,"departure":"18:55","delay":-85,"vehicle":722,"station":"Železničná stanica","isTechnical":false,"Id":19,"Type":"MHD","CurrentTime":1590599328790},{"number":"11","numberAlt":null,"direction":1,"lat":48.97629,"lng":21.27707,"departure":"19:08","delay":0,"vehicle":380,"station":"Solivar","isTechnical":false,"Id":20,"Type":"MHD","CurrentTime":1590599328790},{"number":"1","numberAlt":null,"direction":1,"lat":48.98168,"lng":21.25614,"departure":"19:02","delay":-111,"vehicle":3418,"station":"Solivarská","isTechnical":false,"Id":21,"Type":"MHD","CurrentTime":1590599328790},{"number":"38","numberAlt":null,"direction":0,"lat":48.98583,"lng":21.23961,"departure":"18:55","delay":-3,"vehicle":716,"station":"Vysokoškolský areál","isTechnical":false,"Id":22,"Type":"MHD","CurrentTime":1590599328790},{"number":"4","numberAlt":null,"direction":1,"lat":48.99024,"lng":21.2669,"departure":"19:06","delay":-35,"vehicle":728,"station":"Vansovej","isTechnical":false,"Id":23,"Type":"MHD","CurrentTime":1590599328790},{"number":"38","numberAlt":null,"direction":1,"lat":48.99802,"lng":21.22806,"departure":"18:48","delay":-90,"vehicle":731,"station":"Námestie mládeže","isTechnical":false,"Id":24,"Type":"MHD","CurrentTime":1590599328790},{"number":"2","numberAlt":null,"direction":1,"lat":48.99301,"lng":21.23308,"departure":"18:50","delay":-50,"vehicle":732,"station":"Vysokoškolský areál","isTechnical":false,"Id":25,"Type":"MHD","CurrentTime":1590599328790},{"number":"22","numberAlt":null,"direction":0,"lat":48.99277,"lng":21.26673,"departure":"19:02","delay":-11,"vehicle":3436,"station":"Laca Novomeského","isTechnical":false,"Id":26,"Type":"MHD","CurrentTime":1590599328790},{"number":"10","numberAlt":null,"direction":0,"lat":48.98283,"lng":21.25003,"departure":"18:59","delay":32,"vehicle":362,"station":"Železničná stanica","isTechnical":false,"Id":27,"Type":"MHD","CurrentTime":1590599328790}]