{"error":null,"busses":[{"number":"39","numberAlt":null,"direction":0,"lat":48.98301,"lng":21.24995,"departure":"16:45","delay":29,"vehicle":398,"station":"Čierny most","isTechnical":false},{"number":"45","numberAlt":null,"direction":1,"lat":48.98837,"lng":21.24784,"departure":"16:50","delay":-74,"vehicle":393,"station":"Železničná stanica","isTechnical":false},{"number":"8","numberAlt":null,"direction":1,"lat":49.00319,"lng":21.22074,"departure":"16:35","delay":-236,"vehicle":718,"station":"Clementisova","isTechnical":false},{"number":"12","numberAlt":null,"direction":0,"lat":49.00036,"lng":21.2696,"departure":"16:16","delay":-194,"vehicle":399,"station":"Karpatská","isTechnical":false},{"number":"5","numberAlt":"5D","direction":0,"lat":49.00138,"lng":21.23927,"departure":"16:50","delay":7,"vehicle":735,"station":"Trojica","isTechnical":false},{"number":"1","numberAlt":null,"direction":1,"lat":49.02383,"lng":21.28282,"departure":"16:32","delay":-434,"vehicle":360,"station":"Pažica","isTechnical":false},{"number":"1","numberAlt":null,"direction":1,"lat":48.97928,"lng":21.27686,"departure":"17:02","delay":-3,"vehicle":3432,"station":"Solivar","isTechnical":false},{"number":"8","numberAlt":null,"direction":1,"lat":48.98134,"lng":21.26361,"departure":"16:55","delay":-65,"vehicle":723,"station":"Pavla Horova","isTechnical":false},{"number":"38","numberAlt":null,"direction":0,"lat":49.00032,"lng":21.2265,"departure":"16:55","delay":18,"vehicle":730,"station":"Clementisova","isTechnical":false},{"number":"38","numberAlt":null,"direction":1,"lat":48.98455,"lng":21.24972,"departure":"16:48","delay":-209,"vehicle":727,"station":"Železničná stanica","isTechnical":false},{"number":"4","numberAlt":null,"direction":1,"lat":48.99767,"lng":21.2407,"departure":"16:46","delay":-34,"vehicle":720,"station":"Na Hlavnej","isTechnical":false},{"number":"22","numberAlt":null,"direction":0,"lat":48.99652,"lng":21.28527,"departure":"16:57","delay":18,"vehicle":391,"station":"Šalgovík","isTechnical":false},{"number":"42","numberAlt":null,"direction":0,"lat":48.97093,"lng":21.24457,"departure":"16:54","delay":92,"vehicle":390,"station":"Jilemnického","isTechnical":false},{"number":"4","numberAlt":null,"direction":0,"lat":49.00154,"lng":21.23852,"departure":"16:50","delay":-109,"vehicle":725,"station":"Poliklinika","isTechnical":false},{"number":"45","numberAlt":null,"direction":0,"lat":49.03966,"lng":21.1964,"departure":"17:00","delay":-1,"vehicle":354,"station":"Námestie sv. Jakuba","isTechnical":false},{"number":"15","numberAlt":null,"direction":0,"lat":48.99607,"lng":21.24169,"departure":"16:48","delay":12,"vehicle":396,"station":"Trojica","isTechnical":false},{"number":"21","numberAlt":null,"direction":1,"lat":49.04064,"lng":21.28362,"departure":"16:18","delay":-570,"vehicle":357,"station":"Železničné priecestie","isTechnical":false},{"number":"2","numberAlt":null,"direction":1,"lat":49.00027,"lng":21.23918,"departure":"16:50","delay":-310,"vehicle":736,"station":"Sabinovská","isTechnical":false},{"number":"8","numberAlt":null,"direction":0,"lat":48.98125,"lng":21.25679,"departure":"16:40","delay":-90,"vehicle":722,"station":"Škára","isTechnical":false},{"number":"1","numberAlt":null,"direction":0,"lat":48.9814,"lng":21.25653,"departure":"16:32","delay":-712,"vehicle":3418,"station":"Železničná stanica","isTechnical":false},{"number":"8","numberAlt":null,"direction":0,"lat":49.01521,"lng":21.22297,"departure":"17:00","delay":14,"vehicle":731,"station":"Centrum","isTechnical":false},{"number":"7","numberAlt":null,"direction":0,"lat":49.01727,"lng":21.26614,"departure":"16:45","delay":-22,"vehicle":732,"station":"Ľubochnianska","isTechnical":false},{"number":"14","numberAlt":null,"direction":1,"lat":48.95603,"lng":21.2676,"departure":"16:55","delay":48,"vehicle":365,"station":"Priemyselný park Záborské","isTechnical":false},{"number":"32","numberAlt":null,"direction":1,"lat":48.99338,"lng":21.24387,"departure":"16:58","delay":-77,"vehicle":351,"station":"Na Hlavnej","isTechnical":false},{"number":"18","numberAlt":null,"direction":0,"lat":48.94932,"lng":21.16946,"departure":"17:00","delay":-52,"vehicle":3436,"station":"Bzenov","isTechnical":false},{"number":"#R","numberAlt":null,"direction":1,"lat":48.97834,"lng":21.26389,"departure":"17:00","delay":117,"vehicle":344,"station":"Pod Šalgovíkom","isTechnical":true},{"number":"46","numberAlt":null,"direction":1,"lat":48.97785,"lng":21.3224,"departure":"17:00","delay":-7,"vehicle":352,"station":"Na Záhumní","isTechnical":false},{"number":"37","numberAlt":null,"direction":1,"lat":49.02017,"lng":21.2742,"departure":"16:48","delay":-468,"vehicle":387,"station":"Skleník","isTechnical":false},{"number":"34","numberAlt":null,"direction":1,"lat":49.0167,"lng":21.22334,"departure":"16:33","delay":22,"vehicle":359,"station":"VUKOV","isTechnical":false},{"number":"36","numberAlt":null,"direction":1,"lat":48.99006,"lng":21.25026,"departure":"16:53","delay":-33,"vehicle":3437,"station":"Čierny most","isTechnical":false},{"number":"28","numberAlt":null,"direction":1,"lat":48.99168,"lng":21.24529,"departure":"17:00","delay":34,"vehicle":367,"station":"Čierny most","isTechnical":false},{"number":"22","numberAlt":null,"direction":1,"lat":49.02924,"lng":21.24037,"departure":"17:00","delay":-11,"vehicle":353,"station":"Šidlovská","isTechnical":false},{"number":"38","numberAlt":null,"direction":0,"lat":48.99613,"lng":21.26942,"departure":"16:35","delay":-125,"vehicle":714,"station":"Jurkovičova","isTechnical":false},{"number":"10","numberAlt":null,"direction":0,"lat":48.99471,"lng":21.25059,"departure":"16:59","delay":37,"vehicle":362,"station":"Sládkovičova","isTechnical":false}]}