[{"number":"8","kam":"Sibírska","zoznamZastávokKam":["Sídlisko III","Prostějovská","Centrum","VUKOV","Námestie Kráľovnej pokoja","Volgogradská","Clementisova","Poliklinika","Trojica","Na Hlavnej","Veľká pošta","Čierny most","Železničná stanica","Škára","Lesnícka","Pavla Horova","Martina Benku","Jurkovičova","Karpatská","Sibírska"]},{"number":"10","kam":"Sibírska","zoznamZastávokKam":["Fakultná nemocnica","Detská nemocnica","Dilongova","Sládkovičova","Moyzesova","Veľká pošta","Čierny most","Železničná stanica","Nový Solivar","Košická","Chalupkova","Švábska","Lomnická","Lesnícka","Pavla Horova","Martina Benku","Jurkovičova","Karpatská","Sibírska"]},{"number":"12","kam":"Sibírska","zoznamZastávokKam":["Šidlovec","Stavbárska","Šidlovská","Dúbravská","Pri kaplnke","Dúbrava","Veterinárna nemocnica","Sídlisko III","Prostějovská","Centrum","VUKOV","Námestie Kráľovnej pokoja","Volgogradská","Marka Čulena","Odborárska","Sázavského","Kollárova","Stredná lesnícka škola","Gymnázium sv. Moniky","Kúpeľná","Pavlovičovo námestie","Divadlo Jonáša Záborského","Na Hlavnej","Trojica","Duklianska","Šafárikova, cintorín","Detská nemocnica","Fakultná nemocnica","Lesík delostrelcov","Pod Táborom","Nižné lúky","Jurkovičova","Karpatská","Sibírska"]},{"number":"27","odkial":"Pod Kamennou baňou","zoznamZastávokOdkial":[{"name":"Terchovská","coordinates":[21.2156,48.9887]},{"name":"Súľovská","coordinates":[21.2221,48.9884]},{"name":"Ku Brezinám","coordinates":[21.2248,48.9872]},{"name":"Slávičia","coordinates":[21.227,48.9863]},{"name":"Mestská hala","coordinates":[21.2366,48.9844]},{"name":"Škultétyho","coordinates":[21.2416,48.9865]},{"name":"Čierny most","coordinates":[21.2471,48.9893]},{"name":"Divadlo Jonáša Záborského","coordinates":[21.2878,48.9424]},{"name":"Divadlo Jonáša Záborského","coordinates":[21.2878,48.9424]},{"name":"Na Hlavnej","coordinates":[21.2421,48.9957]},{"name":"Trojica","coordinates":[21.2393,49.0002]},{"name":"Duklianska","coordinates":[21.2416,49.0028]},{"name":"Šafárikova, cintorín","coordinates":[21.2465,49.0043]},{"name":"Vodárenská","coordinates":[21.2494,49.0024]},{"name":"Hviezdna","coordinates":[21.2523,49.0025]}]},{"number":"32","kam":"Sibírska","zoznamZastávokKam":["Sibírska","Karpatská","Jurkovičova","Rusínska","Hobby park","Čierny most","Divadlo Jonáša Záborského","Na Hlavnej","Trojica"]},{"number":"32A","kam":"Sibírska","zoznamZastávokKam":["Sibírska","Karpatská","Jurkovičova","Rusínska","Hobby park","Čierny most","Okružná"]},{"number":"43","odkial":"Pod Kamennou baňou","zoznamZastávokOdkial":[{"name":"Železničná stanica","coordinates":[21.2499,48.9832]},{"name":"Škultétyho","coordinates":[21.2416,48.9865]},{"name":"Mestská hala","coordinates":[21.2366,48.9844]},{"name":"Zimný štadión","coordinates":[21.2292,48.9878]},{"name":"Pod Kalváriou","coordinates":[21.2296,48.991]},{"name":"Kollárova","coordinates":[21.2247,48.9921]},{"name":"Sázavského","coordinates":[21.2234,48.9943]},{"name":"Odborárska","coordinates":[21.2219,48.9971]},{"name":"Volgogradská","coordinates":[21.221,49.0041]},{"name":"Námestie Kráľovnej pokoja","coordinates":[21.2214,49.0066]},{"name":"VUKOV","coordinates":[21.2222,49.0106]},{"name":"Centrum","coordinates":[21.2235,49.0171]},{"name":"Prostějovská","coordinates":[21.2248,49.0209]},{"name":"Bajkalská","coordinates":[21.2299,49.0236]},{"name":"Veterinárna nemocnica","coordinates":[21.232,49.021]},{"name":"Rázcestie Šidlovec","coordinates":[21.2481,49.0329]},{"name":"Pod Skalkou","coordinates":[21.2366,49.0155]},{"name":"Mičurinova","coordinates":[21.2369,49.0118]},{"name":"Sabinovská","coordinates":[21.2383,49.0066]},{"name":"Duklianska","coordinates":[21.2416,49.0028]},{"name":"Šafárikova, cintorín","coordinates":[21.2465,49.0043]}]},{"number":"E","kam":"Sibírska","zoznamZastávokKam":["Nižná Šebastová","Pažica","Vranovská","Šarišské Lúky","Sibírska","Karpatská","Jurkovičova","Rusínska","Lesík delostrelcov","Vajanského","Poliklinika","Levočská","Volgogradská","Námestie Kráľovnej pokoja","VUKOV","Centrum","Prostějovská","Sídlisko III"]},{"number":"H","kam":"Sibírska","zoznamZastávokKam":["Vodná","Potočná","Včelárska","ZŠ Ľubotice","Sibírska"]},{"number":"M","odkial":"Pod Kamennou baňou","zoznamZastávokOdkial":[{"name":"Haniska","coordinates":[21.2412,48.9533]},{"name":"Lemešianska","coordinates":[21.2407,48.9556]},{"name":"Priecestie","coordinates":[21.2411,48.9574]},{"name":"Čistička","coordinates":[21.2469,48.965]},{"name":"Gemor","coordinates":[21.2496,48.9672]},{"name":"ZVL","coordinates":[21.252,48.9691]},{"name":"Chalupkova","coordinates":[21.2552,48.9705]},{"name":"Švábska","coordinates":[21.2585,48.9713]},{"name":"Lomnická","coordinates":[21.2617,48.9741]},{"name":"Železničná stanica","coordinates":[21.2499,48.9832]},{"name":"Škultétyho","coordinates":[21.2416,48.9865]},{"name":"Zimný štadión","coordinates":[21.2292,48.9878]},{"name":"Pod Kalváriou","coordinates":[21.2296,48.991]},{"name":"Kollárova","coordinates":[21.2247,48.9921]},{"name":"Sázavského","coordinates":[21.2234,48.9943]},{"name":"Odborárska","coordinates":[21.2219,48.9971]},{"name":"Levočská","coordinates":[21.2242,49.0005]},{"name":"Poliklinika","coordinates":[21.2361,49.0009]}]},{"number":"N2","kam":"Sibírska","zoznamZastávokKam":["Nižná Šebastová","Pažica","Vranovská","Šarišské Lúky","Sibírska","Karpatská","Jurkovičova","Martina Benku","Pavla Horova","Lesnícka","Lomnická","Švábska","Chalupkova","Košická","Nový Solivar","Železničná stanica","Čierny most","Divadlo Jonáša Záborského","Na Hlavnej","Trojica","Sabinovská","Mičurinova","Pod Skalkou","Rázcestie Šidlovec","Veterinárna nemocnica","Sídlisko III"]},{"number":"P","odkial":"Pod Kamennou baňou","zoznamZastávokOdkial":[{"name":"Limbová","coordinates":[21.286,49.0221]},{"name":"Slávik","coordinates":[21.2847,49.0196]},{"name":"Šebastovská","coordinates":[21.2767,49.0196]},{"name":"Bardejovská","coordinates":[21.2755,49.0179]},{"name":"Domašská","coordinates":[21.2712,49.0149]},{"name":"Kalinčiakova","coordinates":[21.2703,49.0118]},{"name":"Nižnianska","coordinates":[21.2675,49.0117]},{"name":"Sibírska","coordinates":[21.272,49.0008]},{"name":"Karpatská","coordinates":[21.27,48.9973]},{"name":"Jurkovičova","coordinates":[21.2683,48.9944]},{"name":"Laca Novomeského","coordinates":[21.2669,48.9902]},{"name":"Solivarská","coordinates":[21.2769,48.9783]},{"name":"Solivarská","coordinates":[21.2769,48.9783]},{"name":"Lomnická","coordinates":[21.2617,48.9741]},{"name":"Švábska","coordinates":[21.2585,48.9713]},{"name":"Železničná stanica","coordinates":[21.2499,48.9832]},{"name":"Zimný štadión","coordinates":[21.2292,48.9878]},{"name":"Pod Kalváriou","coordinates":[21.2296,48.991]},{"name":"Obrancov mieru","coordinates":[21.2281,48.9981]},{"name":"Námestie Kráľovnej pokoja","coordinates":[21.2214,49.0066]},{"name":"ZŠ Prostějovská","coordinates":[21.2248,49.0209]}]},{"number":"P","kam":"Sibírska","zoznamZastávokKam":["Limbová","Slávik","Slanská","Šebastovská","Bardejovská","Domašská","Kalinčiakova","Nižnianska","Sibírska","Karpatská","Jurkovičova","Laca Novomeského","Bohúňova","Solivarská","Lomnická","Švábska","Železničná stanica","Pod Kamennou baňou","Zimný štadión","Pod Kalváriou","Obrancov mieru","Námestie Kráľovnej pokoja","ZŠ Prostějovská"]}]